item_name,shop_name,city,address,price,rating,category,lat,lon
"Cà phê lon, Mì ly, Lăn khử mùi, Kẹo cao su, Cà phê lon, Bút bi, Bánh bao mini, Muỗng nhựa, Túi nylon, Bánh mì sandwich, Bánh snack",Circle K,Ho Chi Minh City,"Thăng Long, Phường Tân Sơn Nhất, Thủ Đức, 72106",15,4.5,convenience,10.8009338,106.6607181
"Bút bi, Dây sạc điện thoại, Khẩu trang y tế, Pin AA, Bút bi, Trà đóng chai, Bánh quy, Lăn khử mùi, Trà đóng chai, Nước suối, Dây sạc điện thoại, Chai nước, Muỗng nhựa, Mì ly, Bàn chải đánh răng, Chai nước",Cửa Hàng Gạo Chợ Đào,Ho Chi Minh City,"Lê Văn Linh, Phường Xóm Chiếu, Thủ Đức, 72806",20,3.6,convenience,10.7638846,106.7068074
"Bánh snack, Ô dù gấp, Dao cạo râu, Nước tăng lực, Sữa hộp, Bánh bao mini, Mì ly, Nước ngọt, Cốc nhựa, Cốc nhựa, Nước suối, Xà phòng tắm, Khoai tây chiên, Kẹo cao su, Sữa hộp, Bánh snack, Thịt hộp, Mì ly, Bánh quy, Khăn giấy",Cửa Hàng Thực Phẩm Vissan,Ho Chi Minh City,"Ðinh Lễ, Phường Xóm Chiếu, Thủ Đức, 72806",20,3.5,convenience,10.7639706,106.7058073
"Trứng gà, Dầu gội, Trứng gà, Nước tương, Bột giặt, Thịt heo, Đĩa sứ, Bột mì, Ngũ cốc ăn sáng, Bột giặt, Son dưỡng môi",Focomart,Ho Chi Minh City,"Lê Quốc Hưng, Phường Xóm Chiếu, Thủ Đức, 72806",135,4.2,supermarket,10.7652697,106.7028692
"Sữa tắm, Gạo, Đĩa sứ, Kem cạo râu, Nước lau sàn, Muối, Sữa tươi, Gạo, Bột mì, Kem cạo râu, Bơ thực vật, Kem dưỡng da, Bột mì, Sốt cà chua, Bơ thực vật, Mì gói, Khẩu trang y tế, Muỗng nĩa, Nước lau sàn",Cửa Hàng Tiện Lợi Shop&Go!,Ho Chi Minh City,"Hẻm 15 Nơ Trang Long, Phường Gia Định, Thành phố Hồ Chí Minh, 72317",55,4.1,supermarket,10.806477,106.6949172
"Chảo chống dính, Son dưỡng môi, Sữa tắm, Sữa tươi, Sữa tươi, Đĩa sứ, Bàn chải, Son dưỡng môi, Nước trái cây, Gạo, Sữa chua, Sốt cà chua, Nước hoa mini, Trứng gà, Rau củ quả, Khay nhựa, Mì gói, Đường, Nước xả vải",Focomart,Ho Chi Minh City,"Bạch Đằng, Phường Gia Định, Thành phố Hồ Chí Minh, 72317",135,4.1,supermarket,10.8036214,106.7012353
"Bột ngọt, Khẩu trang y tế, Son dưỡng môi, Chảo chống dính, Đĩa sứ, Rau củ quả, Thớt, Dầu ăn, Sốt cà chua, Khay nhựa, Nước xả vải, Nước lau sàn, Nước xả vải, Giấy vệ sinh, Son dưỡng môi, Nước hoa mini",Maximart,Ho Chi Minh City,"Đường 3 Tháng 2, Phường Vườn Lài, Thành phố Hồ Chí Minh, 70001",105,4.4,supermarket,10.7769187,106.6811112
"Nước xả vải, Bột ngọt, Nước mắm, Bột giặt, Trứng gà, Ly thủy tinh, Trứng gà, Rau củ quả, Bột ngọt, Son dưỡng môi, Son dưỡng môi, Nước tương, Nước tương, Ngũ cốc ăn sáng, Nước mắm, Giấy bọc thực phẩm, Bông tẩy trang",Siêu Thị Bình Hòa,Ho Chi Minh City,"Hẻm 292 Nơ Trang Long, Phường Bình Thạnh, Thành phố Hồ Chí Minh, 71400",110,3.5,supermarket,10.816301,106.6981233
"Thịt heo, Nước mắm, Sữa tươi, Bột mì, Dầu ăn, Dầu gội, Giấy bọc thực phẩm, Túi đựng rác, Nước rửa chén, Khẩu trang y tế, Túi đựng rác, Muỗng nĩa, Chảo chống dính, Snack, Bột giặt, Kem cạo râu, Túi đựng rác",Siêu Thị Mini Bình Minh,Ho Chi Minh City,"440, Nơ Trang Long, Phường Bình Lợi Trung, Thành phố Hồ Chí Minh, 72309",155,3.8,supermarket,10.8224451,106.7071706
"Nước tương, Nước rửa chén, Trứng gà, Túi đựng rác, Thịt heo, Giấy vệ sinh, Muỗng nĩa, Chảo chống dính, Sốt cà chua, Nước lau sàn, Thớt, Dao bếp, Trứng gà, Dầu gội, Dầu gội",Siêu Thị Mela,Ho Chi Minh City,"Đường Yết Kiêu, Phường An Đông, Thành phố Hồ Chí Minh, 72712",200,4.4,supermarket,10.7579255,106.6731127
"Thịt tươi, Rau củ quả, Trái cây, Hải sản, Trứng, Sữa, Sữa chua, Gạo, Mì ăn liền, Thực phẩm đóng hộp, Bánh kẹo, Đồ uống, Gia vị, Dầu ăn, Bột các loại, Nước rửa chén, Bột giặt, Hóa mỹ phẩm, Đồ dùng gia đình, Đồ dùng nhà bếp",WinMart+,Ho Chi Minh City,"Đường Số 48, Phường Vĩnh Hội, Thành phố Hồ Chí Minh, 72800",20,3.9,convenience,10.7560655,106.7001948
"Sữa chua uống, Dây sạc điện thoại, Pin sạc, Thịt hộp, Bánh snack, Khẩu trang y tế, Muỗng nhựa, Cốc nhựa, Găng tay nilon, Khẩu trang y tế, Muỗng nhựa, Kẹo cao su",FamilyMart,Ho Chi Minh City,"56, Phó Đức Chính, Phường Bến Thành, Thành phố Hồ Chí Minh, 71010",15,3.5,convenience,10.7692304,106.7001682
"Đường, Bột mì, Nước xả vải, Thớt, Nước lau sàn, Bàn chải, Sốt cà chua, Đĩa sứ, Chảo chống dính, Cà phê hòa tan, Bông tẩy trang, Mì gói, Sốt cà chua, Gạo",Cửa Hàng Mua Sắm Citimart,Ho Chi Minh City,"Floor 4, Đường Hồng Bàng, Phường Chợ Lớn, Thành phố Hồ Chí Minh, 72415",135,3.9,supermarket,10.7559528,106.6624963
"Cốc nhựa, Muỗng nhựa, Khăn ướt, Cốc nhựa, Khoai tây chiên, Sổ tay nhỏ, Mì gói, Lăn khử mùi, Dầu gội, Bút bi, Bao rác",Circle K,Ho Chi Minh City,"Bùi Thị Xuân, Phường Bến Thành, Thành phố Hồ Chí Minh, 70200",15,3.6,convenience,10.7709168,106.6894985
"Sổ tay nhỏ, Bánh snack, Lăn khử mùi, Ô dù gấp, Sữa hộp, Chai nước, Mì ly, Bánh quy, Khẩu trang y tế, Bóng đèn LED mini, Bánh quy, Trà đóng chai, Bóng đèn LED mini, Khăn ướt, Nước tăng lực, Bật lửa, Kem đánh răng, Sổ tay nhỏ",Shop&Go!,Ho Chi Minh City,"Bùi Thị Xuân, Phường Bến Thành, Thành phố Hồ Chí Minh, 70200",10,3.7,convenience,10.7718769,106.6904496
"Sữa chua uống, Bật lửa, Thịt hộp, Nước tăng lực, Cà phê lon, Bánh quy, Muỗng nhựa, Găng tay nilon, Lăn khử mùi, Nước ngọt, Mì gói, Túi nylon, Lăn khử mùi, Bánh snack, Pin sạc",Circle K,Ho Chi Minh City,"53, Nguyễn Du, Phường Sài Gòn, Thành phố Hồ Chí Minh, 71006",20,4.4,convenience,10.7796921,106.7007494
"Thịt heo, Ly thủy tinh, Chảo chống dính, Dầu gội, Khẩu trang y tế, Sữa tắm, Nước trái cây, Sữa chua, Bột ngọt, Giấy vệ sinh, Nước rửa chén",COOP EXTRA,Ho Chi Minh City,"101, Nguyễn Văn Linh, Phường Tân Mỹ, Thành phố Hồ Chí Minh, 72915",65,4.2,supermarket,10.7284509,106.7183878
"Lăn khử mùi, Sữa chua uống, Kẹo, Nước ngọt, Ô dù gấp, Bóng đèn LED mini, Kem đánh răng, Chai nước, Lăn khử mùi, Bút bi, Cốc nhựa, Cốc nhựa, Cốc nhựa, Nước suối, Bánh quy, Sữa hộp, Trà đóng chai, Bóng đèn LED mini, Nước tăng lực, Ô dù gấp",Shop&Go!,Ho Chi Minh City,"105C, Bến Vân Đồn, Phường Khánh Hội, Thành phố Hồ Chí Minh, 72806",10,4.1,convenience,10.764179,106.7011229
"Trà, Sữa tắm, Sữa bột trẻ em, Đường, Sữa bột, Dầu gội, Bột giặt, Trà, Nước rửa chén, Muối, Ngũ cốc, Ngũ cốc, Dầu ăn, Mì gói, Gạo, Thực phẩm đóng hộp, Nước ngọt, Muối",Parkson,Ho Chi Minh City,"3, Nguyễn Lương Bằng, Phường Tân Mỹ, Thành phố Hồ Chí Minh, 72915",20,4.3,department_store,10.7294661,106.721883
"Bánh mì sandwich, Khoai tây chiên, Túi nylon, Chai nước, Dầu gội, Chai nước, Dây sạc điện thoại, Khăn ướt, Muỗng nhựa, Khẩu trang y tế, Xà phòng tắm, Găng tay nilon, Khoai tây chiên, Sữa chua uống, Lăn khử mùi, Kẹo, Gối cổ du lịch, Dầu gội, Nước tăng lực",Cửa Hàng Tiện Lợi Shop & Go,Ho Chi Minh City,"243, Hai Bà Trưng, Phường Xuân Hòa, Thành phố Hồ Chí Minh, 72200",10,4,convenience,10.7872473,106.6925533
"Kẹo cao su, Trà đóng chai, Nước tăng lực, Bút bi, Nước suối, Bánh bao mini, Gối cổ du lịch, Cà phê lon, Bút bi, Muỗng nhựa, Pin AA, Mì gói, Bánh bao mini, Khăn giấy, Cốc nhựa, Nước suối",Shop&Go!,Ho Chi Minh City,"Xô Viết Nghệ Tĩnh, Phường Thạnh Mỹ Tây, Thành phố Hồ Chí Minh, 72200",10,3.7,convenience,10.794457,106.70916
"Dao bếp, Dầu gội, Gạo, Mì gói, Nước xả vải, Nước tương, Dao bếp, Sữa tắm, Nước lau sàn, Sữa tươi, Nước tương, Nước rửa chén, Nước trái cây, Nước hoa mini, Cà phê hòa tan, Bông tẩy trang, Bàn chải, Kem dưỡng da",Big C,Ho Chi Minh City,"1/1, Trường Chinh, Phường Tây Thạnh, Thành phố Hồ Chí Minh, 70500",170,3.6,supermarket,10.806804,106.634147
"Túi nylon, Bánh bao mini, Ô dù gấp, Gối cổ du lịch, Khăn giấy, Túi nylon, Mì ly, Bút bi, Khăn ướt, Túi nylon, Pin AA, Sữa hộp",Cửa Hàng Tiện Lợi Shop&Go,Ho Chi Minh City,"Lê Văn Sỹ, Phường Phú Nhuận, Thành phố Hồ Chí Minh, 72215",10,3.6,convenience,10.7930496,106.6698351
"Nước ngọt, Bàn chải đánh răng, Bàn chải đánh răng, Khăn ướt, Bánh snack, Túi nylon, Cà phê lon, Dao cạo râu, Bật lửa, Sữa hộp, Pin sạc, Trà đóng chai, Lăn khử mùi, Dây sạc điện thoại",Shop&Go!,Ho Chi Minh City,"254, Nguyễn Công Trứ, Phường Bến Thành, Thành phố Hồ Chí Minh, 71010",15,4.5,convenience,10.7674953,106.7002265
"Bột giặt, Nước xả vải, Dầu gội, Nước tương, Rau củ quả, Trà túi lọc, Giấy vệ sinh, Chảo chống dính, Thịt heo, Khẩu trang y tế, Nước lau sàn, Sốt cà chua, Sữa tắm, Thớt, Nước xả vải",Siêu Thị Online Annam Gourmet,Ho Chi Minh City,"16-18, Hai Bà Trưng, Phường Sài Gòn, Thành phố Hồ Chí Minh, 71006",95,3.7,supermarket,10.7767779,106.7050958
"Khẩu trang y tế, Khay nhựa, Chảo chống dính, Ngũ cốc ăn sáng, Dầu gội, Trứng gà, Dầu ăn, Nước trái cây, Dầu ăn, Thịt heo, Đường, Chảo chống dính, Bông tẩy trang, Nước mắm, Khẩu trang y tế, Bông tẩy trang",Co.op Mart,Ho Chi Minh City,"home C 3, Trường Sa, Phường Nhiêu Lộc, Thành phố Hồ Chí Minh, 70150",50,4.3,supermarket,10.7864217,106.6755113
"Nước lau sàn, Nước rửa chén, Giấy bọc thực phẩm, Nước xả vải, Snack, Bột ngọt, Kem cạo râu, Sốt cà chua, Bột mì, Ly thủy tinh, Sốt cà chua, Bột mì, Đường, Mì gói, Cá hộp, Trà túi lọc, Sốt cà chua, Nước tương, Son dưỡng môi, Son dưỡng môi",CoopMart Vũng Tàu,Ho Chi Minh City,"36, Nguyễn Thái Học, Phường Tam Thắng, Thành phố Hồ Chí Minh, 76666",140,4.5,supermarket,10.3669427,107.0854561
"Mì gói, Dao cạo râu, Găng tay nilon, Khẩu trang y tế, Lăn khử mùi, Kem đánh răng, Túi nylon, Chai nước, Khoai tây chiên, Bánh mì sandwich, Muỗng nhựa, Cà phê lon, Ô dù gấp, Sữa hộp, Găng tay nilon, Bánh mì sandwich, Thịt hộp, Nước suối, Khăn ướt",AEON Citimart B&B,Ho Chi Minh City,"S4-1, Bùi Bằng Đoàn, Phường Tân Hưng, Thành phố Hồ Chí Minh, 72915",10,3.8,convenience,10.7299816,106.7087541
"Bông tẩy trang, Bột ngọt, Khay nhựa, Nước hoa mini, Bột giặt, Nước tương, Chảo chống dính, Thớt, Khay nhựa, Nước hoa mini, Dao bếp, Snack, Sữa tắm, Bột mì, Bàn chải, Dầu ăn, Trà túi lọc, Son dưỡng môi",Co.opmart Phan Văn Trị,Ho Chi Minh City,"543/1, Đường Phan Văn Trị, Phường Hạnh Thông, Thành phố Hồ Chí Minh, 71400",105,3.9,supermarket,10.8295261,106.6820675
"Khay nhựa, Nước rửa chén, Bột giặt, Chảo chống dính, Cà phê hòa tan, Snack, Kem cạo râu, Nước trái cây, Nước lau sàn, Giấy vệ sinh, Khẩu trang y tế, Cá hộp",Siêu Thị Co.opMart - Phú Thọ,Ho Chi Minh City,"Lữ Gia, Phường Phú Thọ, Thành phố Hồ Chí Minh, 72415",65,4.2,supermarket,10.7708442,106.6529897
"Nước lau sàn, Nước lau sàn, Thớt, Đĩa sứ, Son dưỡng môi, Bàn chải, Khẩu trang y tế, Sữa tắm, Nước tương, Bơ thực vật, Kem dưỡng da, Nước trái cây, Đĩa sứ, Dầu ăn, Trà túi lọc, Dầu ăn, Sữa tắm",Co-opmart Liên Hiệp TP.HCM,Ho Chi Minh City,"Quang Trung, Phường Thông Tây Hội, Thuận An, 71500",155,3.7,supermarket,10.8419863,106.6436933
"Giấy bọc thực phẩm, Nước xả vải, Nước xả vải, Nước lau sàn, Dầu gội, Nước lau sàn, Bột mì, Túi đựng rác, Thớt, Trứng gà, Khẩu trang y tế, Bột mì, Ly thủy tinh, Muỗng nĩa, Bàn chải, Nước lau sàn",Big C,Ho Chi Minh City,"Đường song hành, Phường Bình Trưng, Thủ Đức, 71108",200,3.7,supermarket,10.8014349,106.7468623
"Áo thun, Dép sandal, Ví da, Phấn má, Ba lô thời trang, Đồ chơi trẻ em, Đồng hồ, Quần short, Quần short, Đồ chơi trẻ em, Đồng hồ thông minh",Station Mall,Ho Chi Minh City,"12, Quốc Hương, An Khánh, Phường An Khánh, Thành phố Hồ Chí Minh, 71108",200,3.6,mall,10.8011701,106.7331602
"Sữa bột trẻ em, Sữa bột trẻ em, Nước suối, Muối, Tã em bé, Bình sữa, Trà, Ngũ cốc, Bánh ăn dặm, Nước lau sàn, Sữa tắm, Bột nêm, Nước rửa chén, Giấy vệ sinh",Parkson,Ho Chi Minh City,"Đường song hành, Phường Bình Trưng, Thủ Đức, 71108",20,4.1,department_store,10.8014484,106.7469505
"Khoai tây chiên, Bóng đèn LED mini, Túi nylon, Bàn chải đánh răng, Gối cổ du lịch, Khăn giấy, Kẹo, Bút bi, Bánh mì sandwich, Găng tay nilon",Tạp hóa chị Hạnh,Ho Chi Minh City,"Trần Hưng Đạo, Thành phố Hồ Chí Minh",15,4.4,convenience,10.649078,107.2419043
"Nước ngọt, Mì ly, Pin AA, Khăn giấy, Dây sạc điện thoại, Chai nước, Cốc nhựa, Xà phòng tắm, Bút bi, Bánh quy, Pin sạc, Kẹo, Bánh quy, Bút bi, Thịt hộp, Mì ly, Gối cổ du lịch, Khăn ướt, Mì ly, Dao cạo râu",Circle K,Ho Chi Minh City,"Hồ Tùng Mậu, Phường Sài Gòn, Thành phố Hồ Chí Minh, 71006",10,3.9,convenience,10.77194,106.703707
"Túi nylon, Pin sạc, Lăn khử mùi, Mì gói, Túi nylon, Dao cạo râu, Kem đánh răng, Cà phê lon, Khăn ướt, Sữa chua uống, Sổ tay nhỏ, Ô dù gấp",Circle K,Ho Chi Minh City,"Thủ Khoa Huân, Phường Bến Thành, Thành phố Hồ Chí Minh, 71009",10,4.3,convenience,10.7744175,106.6966499
"Bột ngọt, Muỗng nĩa, Cá hộp, Khẩu trang y tế, Nước trái cây, Bột ngọt, Nước trái cây, Nước lau sàn, Sữa chua, Thớt, Nước lau sàn, Dầu gội, Khăn giấy, Bông tẩy trang, Dao bếp, Muối",Citimart,Ho Chi Minh City,"21-23, Nguyễn Thị Minh Khai, Phường Sài Gòn, Thành phố Hồ Chí Minh, 71006",105,3.8,supermarket,10.784261,106.69973
"Khẩu trang y tế, Bánh snack, Pin sạc, Bút bi, Gối cổ du lịch, Nước tăng lực, Bút bi, Khăn ướt, Ô dù gấp, Sữa hộp, Bút bi, Pin sạc, Nước suối, Mì gói, Sữa hộp, Mì ly, Túi nylon, Bóng đèn LED mini, Túi nylon",Circle K,Ho Chi Minh City,"Morison, Phường Tân Mỹ, Thành phố Hồ Chí Minh, 72915",15,4.4,convenience,10.726303,106.720997
"Cà phê lon, Sổ tay nhỏ, Bánh mì sandwich, Ô dù gấp, Mì ly, Gối cổ du lịch, Ô dù gấp, Sữa hộp, Cốc nhựa, Găng tay nilon, Cà phê lon, Kem đánh răng, Kẹo cao su, Bánh quy",Circle K,Ho Chi Minh City,"Vĩnh Khánh, Phường Khánh Hội, Thành phố Hồ Chí Minh, 72800",10,4.4,convenience,10.761571,106.702183
"Bánh bao mini, Bánh mì sandwich, Xà phòng tắm, Chai nước, Dầu gội, Nước tăng lực, Gối cổ du lịch, Ô dù gấp, Bánh quy, Mì ly, Bật lửa, Ô dù gấp, Kẹo, Pin AA, Nước tăng lực, Pin sạc, Sữa chua uống, Thịt hộp, Muỗng nhựa",Bách Hoá Bà Nội Trợ,Ho Chi Minh City,"Hẻm 360D Bến Vân Đồn, Phường Vĩnh Hội, Thành phố Hồ Chí Minh, 72800",15,3.7,convenience,10.754672,106.692041
"Đồ thủ công, Quà lưu niệm, Bưu thiếp, Bánh handmade, Nến thơm, Bình hoa nhỏ, Túi đựng quà, Thiệp chúc mừng, Cốc đôi, Nến thơm, Gấu bông mini, Sổ tay dễ thương, Cốc đôi, Khung ảnh LED, Bình giữ nhiệt, Khăn lụa",Cửa Hàng Quà Tặng Butterfly,Ho Chi Minh City,"53, Đường Ðồng Khởi, Phường Sài Gòn, Thành phố Hồ Chí Minh, 71006",50,4.3,gift,10.7743796,106.7026259
"Lăn khử mùi, Pin sạc, Bánh snack, Bút bi, Kem đánh răng, Găng tay nilon, Pin AA, Khăn giấy, Pin AA, Kẹo, Cà phê lon, Khăn giấy, Cà phê lon, Kem đánh răng, Găng tay nilon",FamilyMart,Ho Chi Minh City,"362, Võ Văn Ngân, Phường Thủ Đức, Thủ Đức, 00848",20,4.3,convenience,10.8496004,106.7716529
"Khăn ướt, Lăn khử mùi, Ô dù gấp, Sổ tay nhỏ, Sữa hộp, Cốc nhựa, Sữa chua uống, Bóng đèn LED mini, Ô dù gấp, Mì gói, Bánh bao mini, Pin sạc, Lăn khử mùi, Cà phê lon, Bánh bao mini",Circle K,Ho Chi Minh City,"366, Võ Văn Ngân, Phường Thủ Đức, Thủ Đức, 00848",20,4.4,convenience,10.8495984,106.7717052
"Bánh bao mini, Bánh bao mini, Xà phòng tắm, Bao rác, Túi nylon, Gối cổ du lịch, Thịt hộp, Trà đóng chai, Kem đánh răng, Kẹo",FamilyMart,Ho Chi Minh City,"289, Võ Văn Ngân, Phường Thủ Đức, Thủ Đức, 71221",20,3.9,convenience,10.8498812,106.7682654
"Sổ tay nhỏ, Pin sạc, Dao cạo râu, Túi nylon, Sữa chua uống, Ô dù gấp, Dây sạc điện thoại, Bao rác, Mì ly, Sữa hộp, Kem đánh răng",Circle K,Ho Chi Minh City,"An Dương Vương, Phường Chợ Quán, Thành phố Hồ Chí Minh, 72760",20,4.3,convenience,10.7603293,106.6809755
"Nước tăng lực, Kẹo, Cốc nhựa, Khăn giấy, Bật lửa, Kẹo cao su, Mì ly, Mì gói, Bánh snack, Khoai tây chiên, Khoai tây chiên, Khoai tây chiên, Cốc nhựa, Sổ tay nhỏ, Muỗng nhựa, Khẩu trang y tế, Dây sạc điện thoại",Ministop,Ho Chi Minh City,"Nguyễn Thượng Hiền, Phường Bình Lợi Trung, Thành phố Hồ Chí Minh, 72317",20,4,convenience,10.8059325,106.6858375
"Găng tay nilon, Túi nylon, Trà đóng chai, Bao rác, Dầu gội, Bánh mì sandwich, Bánh bao mini, Lăn khử mùi, Dầu gội, Găng tay nilon, Khẩu trang y tế, Gối cổ du lịch, Thịt hộp, Kẹo cao su, Bánh quy, Bánh mì sandwich, Bàn chải đánh răng, Cà phê lon, Dầu gội",Cửa Hàng Tiện Lợi Shop&Go!,Ho Chi Minh City,"Võ Thị Sáu, Phường Tân Định, Thành phố Hồ Chí Minh, 72200",10,3.6,convenience,10.7896718,106.6935132
"Pin sạc, Cà phê lon, Trà đóng chai, Bánh quy, Chai nước, Nước tăng lực, Sữa chua uống, Xà phòng tắm, Trà đóng chai, Kem đánh răng, Bàn chải đánh răng, Bao rác, Bật lửa, Trà đóng chai, Mì gói, Khoai tây chiên, Kẹo, Dầu gội, Bóng đèn LED mini",Circle K,Ho Chi Minh City,"Hẻm 30 Hai Bà Trưng, Phường Sài Gòn, Thành phố Hồ Chí Minh, 71006",10,4.2,convenience,10.7769943,106.7047402
"Bánh quy, Pin sạc, Bánh mì sandwich, Bánh quy, Khoai tây chiên, Cốc nhựa, Bao rác, Bánh snack, Cốc nhựa, Bật lửa, Cốc nhựa, Khăn ướt, Túi nylon, Sữa chua uống, Trà đóng chai, Bút bi, Muỗng nhựa, Khoai tây chiên, Nước tăng lực, Sữa hộp",Circle K,Ho Chi Minh City,"Nguyễn Thái Bình, Phường Bến Thành, Thành phố Hồ Chí Minh, 71010",10,4,convenience,10.7694431,106.7000459
"Túi nylon, Bàn chải đánh răng, Kem đánh răng, Bánh bao mini, Muỗng nhựa, Cốc nhựa, Bánh snack, Găng tay nilon, Gối cổ du lịch, Bật lửa, Thịt hộp, Cà phê lon, Bánh snack, Bút bi, Cà phê lon, Kẹo",Circle K,Ho Chi Minh City,"Hoàng Hoa Thám, Phường Gia Định, Thành phố Hồ Chí Minh, 72317",10,3.6,convenience,10.8034135,106.6924486
"Muỗng nĩa, Nước xả vải, Cá hộp, Khay nhựa, Chảo chống dính, Ngũ cốc ăn sáng, Dầu ăn, Sữa chua, Sữa chua, Dao bếp, Thịt heo, Sữa chua, Cá hộp, Rau củ quả, Dầu gội, Muỗng nĩa, Trà túi lọc, Gạo, Khăn giấy, Giấy vệ sinh",Co.op Mart,Ho Chi Minh City,"224/5 Bis, Quốc lộ 13, Phường Bình Thạnh, Thành phố Hồ Chí Minh, 70000",110,4.2,supermarket,10.8119362,106.7119424
"Trà đóng chai, Bút bi, Mì gói, Cà phê lon, Chai nước, Kem đánh răng, Nước suối, Khăn ướt, Muỗng nhựa, Cà phê lon, Gối cổ du lịch, Nước ngọt, Nước suối, Xà phòng tắm, Trà đóng chai, Dầu gội, Cốc nhựa",Circle K,Ho Chi Minh City,"Võ Văn Tần, Phường Xuân Hòa, Thành phố Hồ Chí Minh, 70001",10,3.6,convenience,10.7764437,106.6900541
"Sữa chua uống, Gối cổ du lịch, Bàn chải đánh răng, Dây sạc điện thoại, Thịt hộp, Bánh quy, Bàn chải đánh răng, Bánh mì sandwich, Sổ tay nhỏ, Bóng đèn LED mini, Bóng đèn LED mini, Bút bi, Kem đánh răng, Nước ngọt, Pin AA, Bao rác, Thịt hộp, Xà phòng tắm, Lăn khử mùi, Mì ly",Circle K,Ho Chi Minh City,"Hẻm 25 Tôn Thất Tùng, Phường Bến Thành, Thành phố Hồ Chí Minh, 70200",15,3.8,convenience,10.7706331,106.6878337
"Găng tay nilon, Khăn giấy, Cà phê lon, Dây sạc điện thoại, Nước ngọt, Lăn khử mùi, Kẹo cao su, Pin sạc, Pin AA, Nước suối, Ô dù gấp, Nước ngọt, Xà phòng tắm, Chai nước, Túi nylon, Trà đóng chai",FamilyMart,Ho Chi Minh City,"Ðỗ Quang Ðẩu, Phường Bến Thành, Thành phố Hồ Chí Minh, 70200",20,4.3,convenience,10.7671517,106.6907412
"Dây sạc điện thoại, Mì ly, Muỗng nhựa, Dao cạo râu, Xà phòng tắm, Ô dù gấp, Khẩu trang y tế, Lăn khử mùi, Dầu gội, Muỗng nhựa, Khẩu trang y tế, Dao cạo râu",Circle K,Ho Chi Minh City,"Ðỗ Quang Ðẩu, Phường Bến Thành, Thành phố Hồ Chí Minh, 70200",15,3.8,convenience,10.7668186,106.6910328
"Bao rác, Ô dù gấp, Cà phê lon, Sữa hộp, Khoai tây chiên, Mì gói, Nước ngọt, Sữa hộp, Sữa chua uống, Kem đánh răng, Xà phòng tắm, Bánh quy, Găng tay nilon, Bật lửa, Dầu gội, Bánh bao mini",FamilyMart,Ho Chi Minh City,"Võ Văn Tần, Phường Xuân Hòa, Thành phố Hồ Chí Minh, 70001",15,4.2,convenience,10.7767692,106.6903148
"Bút bi, Cốc nhựa, Xà phòng tắm, Bàn chải đánh răng, Kẹo, Sổ tay nhỏ, Kẹo cao su, Gối cổ du lịch, Dây sạc điện thoại, Bật lửa, Pin sạc, Lăn khử mùi, Khẩu trang y tế",Ministop,Ho Chi Minh City,"Phạm Viết Chánh, Phường Cầu Ông Lãnh, Thủ Đức, 72406",15,3.6,convenience,10.7674283,106.6848633
"Kem dưỡng da, Giấy bọc thực phẩm, Trà túi lọc, Nước xả vải, Kem cạo râu, Bơ thực vật, Chảo chống dính, Túi đựng rác, Khẩu trang y tế, Thớt, Sốt cà chua, Trà túi lọc, Trà túi lọc, Giấy bọc thực phẩm, Túi đựng rác, Thớt, Dầu gội",Siêu Thị C&C,Ho Chi Minh City,"Cống Quỳnh, Phường Cầu Ông Lãnh, Thủ Đức, 70200",200,3.8,supermarket,10.7666709,106.6877461
"Ngũ cốc ăn sáng, Bột ngọt, Cá hộp, Sữa tắm, Dầu ăn, Dầu ăn, Ngũ cốc ăn sáng, Thớt, Son dưỡng môi, Mì gói, Sữa chua, Nước rửa chén",Street Food Market,Ho Chi Minh City,"Hẻm 24 Thủ Khoa Huân, Phường Bến Thành, Thành phố Hồ Chí Minh, 71009",130,4.1,supermarket,10.7736896,106.6975615
"Cốc nhựa, Bóng đèn LED mini, Dầu gội, Khăn ướt, Cốc nhựa, Khẩu trang y tế, Gối cổ du lịch, Mì ly, Nước tăng lực, Kem đánh răng, Chai nước, Lăn khử mùi, Bánh quy, Bánh bao mini, Sữa hộp, Pin AA",FamilyMart,Ho Chi Minh City,"Nguyễn Thị Minh Khai, Phường Sài Gòn, Thành phố Hồ Chí Minh, 71006",10,3.7,convenience,10.7862265,106.7013849
"Kem đánh răng, Nước mắm, Nước ngọt, Sữa bột, Nước suối, Nước xả vải, Bột giặt, Sữa chua, Bánh ăn dặm, Bình sữa, Cà phê, Bánh kẹo, Sữa tươi, Kem đánh răng, Nước suối",KCN VSIP,Ho Chi Minh City,"Đại lộ Tự Do, Phường Bình Hòa, Phường An Phú, Thành phố Hồ Chí Minh, 75209",10,4.1,department_store,10.9306019,106.7239412
"Nước mắm, Dầu gội, Nước xả vải, Giấy bọc thực phẩm, Ngũ cốc ăn sáng, Trà túi lọc, Nước trái cây, Ngũ cốc ăn sáng, Snack, Cá hộp, Bột mì, Thớt, Cà phê hòa tan, Bàn chải, Chảo chống dính, Bột ngọt, Thịt heo, Sữa chua, Ngũ cốc ăn sáng",Vincom Lê Văn Việt,Ho Chi Minh City,"Lê Văn Việt, Phường Tăng Nhơn Phú, Thủ Đức, 00848",85,4.1,supermarket,10.8448244,106.7802879
"Nước ngọt, Nước suối, Khăn ướt, Bút bi, Găng tay nilon, Bàn chải đánh răng, Bóng đèn LED mini, Pin AA, Nước ngọt, Nước suối, Nước suối, Khăn giấy, Pin sạc, Khoai tây chiên, Bánh snack, Túi nylon, Găng tay nilon, Sổ tay nhỏ",FamilyMart,Ho Chi Minh City,"Ðề Thám, Phường Bến Thành, Thành phố Hồ Chí Minh, 70200",20,4.5,convenience,10.7678389,106.6937195
"Thịt heo, Khẩu trang y tế, Bột ngọt, Bàn chải, Thịt heo, Bơ thực vật, Ngũ cốc ăn sáng, Chảo chống dính, Dao bếp, Thớt, Giấy vệ sinh, Thớt",Trung Tâm Mua Sắm Sài Gòn Square 3,Ho Chi Minh City,"176-181, Hai Bà Trưng, Phường Xuân Hòa, Thành phố Hồ Chí Minh, 72200",140,4.3,supermarket,10.7858096,106.6944333
"Tranh ký họa, Tranh canvas, Tranh nghệ thuật 3D, Tượng đất nung, Tranh chân dung, Tượng đất nung, Tượng nhỏ, Tranh đương đại, Tranh acrylic, Tranh nghệ thuật dân gian, Tượng đồng nhỏ, Tranh đương đại, Tranh thêu tay, Tượng nhân vật cổ điển, Tranh sơn mài",Phòng Tranh Lệ Xuân,Ho Chi Minh City,"Đông Du, Phường Sài Gòn, Thành phố Hồ Chí Minh, 71006",280,4.9,art,10.7762523,106.7046985
"Ô dù gấp, Khẩu trang y tế, Sữa hộp, Bánh bao mini, Dầu gội, Kem đánh răng, Gối cổ du lịch, Gối cổ du lịch, Khăn giấy, Sữa hộp, Bánh quy, Túi nylon, Bàn chải đánh răng, Thịt hộp, Sổ tay nhỏ, Trà đóng chai, Cốc nhựa",Shop&Go!,Ho Chi Minh City,"Hẻm 59 Nguyễn Du, Phường Sài Gòn, Thành phố Hồ Chí Minh, 71006",10,4,convenience,10.7791798,106.7002789
"Kem đánh răng, Bánh mì sandwich, Găng tay nilon, Cà phê lon, Khoai tây chiên, Khăn giấy, Kẹo cao su, Bao rác, Bóng đèn LED mini, Sữa chua uống, Mì gói, Cốc nhựa, Khoai tây chiên, Khăn ướt",FamilyMart,Ho Chi Minh City,"Đường Lý Tự Trọng, Phường Bến Thành, Thành phố Hồ Chí Minh, 71009",20,4.5,convenience,10.7736195,106.6969272
"Chai nước, Mì ly, Cà phê lon, Khăn giấy, Kẹo cao su, Khăn ướt, Pin sạc, Nước tăng lực, Túi nylon, Bật lửa, Sổ tay nhỏ, Ô dù gấp, Khăn giấy, Mì gói, Dầu gội, Túi nylon, Dầu gội",FamilyMart,Ho Chi Minh City,"Ðề Thám, Phường Bến Thành, Thành phố Hồ Chí Minh, 70200",10,3.7,convenience,10.7685121,106.6933979
"Khẩu trang y tế, Giấy vệ sinh, Son dưỡng môi, Trà túi lọc, Son dưỡng môi, Cà phê hòa tan, Dầu gội, Trứng gà, Rau củ quả, Trà túi lọc, Cà phê hòa tan, Sữa chua, Kem cạo râu, Giấy bọc thực phẩm, Trứng gà, Kem cạo râu, Trứng gà, Sữa tắm, Dầu ăn",Satra Foods,Ho Chi Minh City,"353, Lê Văn Lương, Phường Tân Hưng, Thành phố Hồ Chí Minh, 72911",175,4.4,supermarket,10.741349,106.70382
"Ngũ cốc, Khăn ướt, Bánh kẹo, Nước xả vải, Mì gói, Nước xả vải, Khăn giấy, Mì gói, Nước suối, Ngũ cốc, Trà, Sữa chua, Nước mắm, Gạo",Minh Châu,Ho Chi Minh City,"Đội Cấn, Phường Tam Thắng, Thành phố Hồ Chí Minh, 76666",15,4.2,department_store,10.3631702,107.0928261
"Bàn chải, Khay nhựa, Khẩu trang y tế, Nước xả vải, Bột ngọt, Son dưỡng môi, Giấy bọc thực phẩm, Túi đựng rác, Ly thủy tinh, Sữa chua, Mì gói, Cà phê hòa tan, Thớt, Dao bếp, Son dưỡng môi, Bông tẩy trang",Vincom Lê Văn Việt,Ho Chi Minh City,"Lê Văn Việt, Phường Tăng Nhơn Phú, Thủ Đức, 00848",110,3.7,supermarket,10.845618,106.779132
"Lăn khử mùi, Gối cổ du lịch, Khăn giấy, Bàn chải đánh răng, Chai nước, Khoai tây chiên, Ô dù gấp, Trà đóng chai, Khăn giấy, Nước suối, Bóng đèn LED mini, Pin sạc, Nước ngọt, Lăn khử mùi, Mì gói",WinMart+,Ho Chi Minh City,"255A, Trần Xuân Soạn, Phường Tân Hưng, Thành phố Hồ Chí Minh, 72800",10,4,convenience,10.751781,106.7148699
"Bút bi, Sữa chua uống, Nước tăng lực, Chai nước, Nước ngọt, Bánh snack, Kẹo, Khẩu trang y tế, Dây sạc điện thoại, Nước suối, Lăn khử mùi, Pin sạc, Bánh bao mini, Mì ly, Dầu gội, Xà phòng tắm, Khoai tây chiên, Pin AA, Nước ngọt, Pin sạc",Linh Phương,Ho Chi Minh City,"Phường Vũng Tàu, Thành phố Hồ Chí Minh, 78207",10,4.1,convenience,10.3487248,107.0755586
"Sữa tắm, Cà phê, Dầu ăn, Khăn ướt, Nước rửa chén, Nước suối, Sữa tắm, Gạo, Trà, Nước ngọt, Bình sữa, Giấy vệ sinh, Dầu gội, Tã em bé, Đường, Trà, Bánh kẹo, Khăn ướt, Mì gói, Khăn giấy",Thành Lập,Ho Chi Minh City,"11, Kha Vạng Cân, Phường Tam Thắng, Thành phố Hồ Chí Minh, 76666",10,3.8,department_store,10.365077,107.0859519
"Bóng đèn LED mini, Khăn ướt, Nước tăng lực, Nước tăng lực, Dây sạc điện thoại, Bút bi, Trà đóng chai, Bật lửa, Pin sạc, Khăn ướt",FamilyMart,Ho Chi Minh City,"16, Xuân Thuỷ, Phường An Khánh, Thành phố Hồ Chí Minh, 71108",10,4.4,convenience,10.8034055,106.7322293
"Thịt hộp, Pin sạc, Pin sạc, Muỗng nhựa, Túi nylon, Sổ tay nhỏ, Cà phê lon, Dầu gội, Bánh mì sandwich, Kem đánh răng, Sữa hộp, Sữa chua uống, Găng tay nilon, Kem đánh răng",FamilyMart,Ho Chi Minh City,"36, Quốc Hương, Phường An Khánh, Thành phố Hồ Chí Minh, 71107",20,4.2,convenience,10.8052093,106.7315307
"Kẹo, Bánh quy, Bao rác, Khăn giấy, Khăn giấy, Bao rác, Mì ly, Bao rác, Nước ngọt, Mì gói, Nước ngọt, Nước suối, Bút bi, Sữa chua uống, Pin AA, Gối cổ du lịch, Găng tay nilon",Cửa Hàng Tiện Lợi HotDeal,Ho Chi Minh City,"Hòa Bình, Phường Phú Thạnh, Thành phố Hồ Chí Minh, 72031",20,4,convenience,10.7727231,106.624704
"Mì gói, Xà phòng tắm, Bút bi, Bóng đèn LED mini, Muỗng nhựa, Bàn chải đánh răng, Bánh bao mini, Dây sạc điện thoại, Khẩu trang y tế, Nước tăng lực, Bánh snack",WinMart+,Ho Chi Minh City,"Hồ Biểu Chánh, Phường Phú Nhuận, Thành phố Hồ Chí Minh, 70150",10,4.2,convenience,10.7935964,106.6766049
"Khoai tây chiên, Chai nước, Ô dù gấp, Khăn giấy, Lăn khử mùi, Bánh mì sandwich, Bao rác, Túi nylon, Khăn giấy, Nước tăng lực, Găng tay nilon, Dầu gội, Túi nylon",Miquafood,Ho Chi Minh City,"12, Rạch Bùng Binh, Phường Nhiêu Lộc, Thành phố Hồ Chí Minh, 70150",10,3.9,convenience,10.7797088,106.6788282
"Thớt, Cà phê hòa tan, Snack, Sữa chua, Thớt, Bột ngọt, Snack, Dao bếp, Snack, Sữa chua, Kem cạo râu",Trung Tâm Mua Sắm Vivo City,Ho Chi Minh City,"Đường nội khu trung tâm SC VIVO CITY, Phường Tân Hưng, Thành phố Hồ Chí Minh, 72915",35,3.7,supermarket,10.7295702,106.7032896
"Quần jean, Mỹ phẩm trang điểm, Đồng hồ, Laptop mini, Mỹ phẩm trang điểm, Quần short, Quần jean, Tai nghe Bluetooth, Bông tai, Đầm công sở",Trung Tâm Mua Sắm Nguyễn Kim Gò Vấp,Ho Chi Minh City,"Nguyễn Oanh, Phường Gò Vấp, Thuận An, 70048",200,4.5,mall,10.8298519,106.6778983
"Ngũ cốc ăn sáng, Bàn chải, Giấy vệ sinh, Ngũ cốc ăn sáng, Bột giặt, Khay nhựa, Cà phê hòa tan, Cá hộp, Dầu ăn, Khăn giấy, Nước lau sàn, Cá hộp, Khay nhựa, Thớt, Trà túi lọc, Giấy bọc thực phẩm",Co.op Food,Ho Chi Minh City,"207, Lê Hồng Phong, Phường Tam Thắng, Thành phố Hồ Chí Minh, 76666",190,3.8,supermarket,10.3519726,107.0895312
"Mì gói, Cốc nhựa, Bàn chải đánh răng, Bóng đèn LED mini, Xà phòng tắm, Trà đóng chai, Kẹo, Mì gói, Trà đóng chai, Nước tăng lực, Dao cạo râu, Khẩu trang y tế, Trà đóng chai, Nước ngọt, Cốc nhựa, Khẩu trang y tế, Bàn chải đánh răng",Tiệm Gạo Ngọc Nguyên,Ho Chi Minh City,"141, Nguyễn Sơn, Phường Phú Thọ Hòa, Thành phố Hồ Chí Minh, 72031",10,4.4,convenience,10.7824221,106.627884
"Bàn chải đánh răng, Sữa chua uống, Bút bi, Bao rác, Găng tay nilon, Khoai tây chiên, Cốc nhựa, Khăn giấy, Khẩu trang y tế, Nước suối, Găng tay nilon, Nước suối, Mì gói, Bánh bao mini, Dầu gội, Khăn giấy, Pin AA, Lăn khử mùi",Circle K,Ho Chi Minh City,"Tân Mỹ, Phường Tân Mỹ, Thành phố Hồ Chí Minh, 71800",20,4.1,convenience,10.7366869,106.7182593
"Bánh snack, Bút bi, Trà đóng chai, Dầu gội, Mì gói, Túi nylon, Bánh snack, Khăn giấy, Kẹo, Túi nylon, Sữa chua uống, Mì ly",Circle K,Ho Chi Minh City,"Nguyễn Văn Bảo, Phường Hạnh Thông, Thành phố Hồ Chí Minh, 71400",20,3.6,convenience,10.8219767,106.6867736
"Nước hoa mini, Đường, Nước hoa mini, Nước xả vải, Trứng gà, Muối, Thịt heo, Giấy bọc thực phẩm, Bàn chải, Ly thủy tinh, Giấy vệ sinh, Nước trái cây, Bàn chải",Trung tâm mua sắm KDC viet-sing,Ho Chi Minh City,"Đường D 5, Phường An Phú, Thành phố Hồ Chí Minh, 75209",65,3.6,supermarket,10.9433264,106.7333084
"Giấy vệ sinh, Giấy bọc thực phẩm, Bông tẩy trang, Túi đựng rác, Cá hộp, Bàn chải, Cà phê hòa tan, Thịt heo, Dao bếp, Đường, Muối, Nước mắm, Kem cạo râu, Chảo chống dính, Khăn giấy",Cửa Hàng 137FoodMart,Ho Chi Minh City,"137/2, Nguyễn Quý Anh, Phường Tân Sơn Nhì, Thành phố Hồ Chí Minh, 72011",150,3.6,supermarket,10.7987967,106.6269122
"Kẹo cao su, Xà phòng tắm, Sữa hộp, Pin AA, Khoai tây chiên, Nước ngọt, Nước tăng lực, Dây sạc điện thoại, Trà đóng chai, Dầu gội, Bánh snack, Lăn khử mùi, Sữa hộp, Nước ngọt, Bật lửa, Sổ tay nhỏ",FamilyMart,Ho Chi Minh City,"160, Bùi Thị Xuân, Phường Bến Thành, Thành phố Hồ Chí Minh, 70200",15,4.5,convenience,10.768461,106.68707
"Dầu ăn, Ngũ cốc, Giấy vệ sinh, Trà, Sữa tắm, Mì gói, Nước xả vải, Nước mắm, Gạo, Sữa bột, Ngũ cốc, Dầu gội, Nước ngọt, Sữa bột, Sữa bột trẻ em, Đường, Bánh ăn dặm, Bột nêm, Khăn giấy, Nước mắm",Takashimaya,Ho Chi Minh City,"Lê Lợi, Phường Sài Gòn, Thành phố Hồ Chí Minh, 00084",15,3.7,department_store,10.77315,106.7005346
"Chai nước, Pin sạc, Bàn chải đánh răng, Khẩu trang y tế, Bút bi, Bánh snack, Mì ly, Pin sạc, Bật lửa, Chai nước, Nước suối, Bật lửa, Muỗng nhựa, Dây sạc điện thoại, Muỗng nhựa, Nước suối",Circle K,Ho Chi Minh City,"Nguyễn Văn Bảo, Phường Hạnh Thông, Thành phố Hồ Chí Minh, 71400",10,3.8,convenience,10.8207911,106.6874108
"Sữa bột, Sữa tươi, Ngũ cốc, Mì gói, Tã em bé, Dầu ăn, Nước xả vải, Bánh kẹo, Nước suối, Bình sữa, Nước mắm, Sữa tươi, Sữa tắm, Ngũ cốc, Sữa chua, Muối, Mì gói, Sữa bột trẻ em",Chợ Đại Quang Minh,Ho Chi Minh City,"Châu Văn Liêm, Phường Chợ Lớn, Thành phố Hồ Chí Minh, 73000",15,4.1,marketplace,10.7516957,106.6587066
"Ngũ cốc ăn sáng, Túi đựng rác, Bột mì, Son dưỡng môi, Bông tẩy trang, Đĩa sứ, Giấy bọc thực phẩm, Giấy vệ sinh, Nước xả vải, Đĩa sứ, Dầu ăn, Bông tẩy trang, Dầu ăn, Cà phê hòa tan",WinMart,Ho Chi Minh City,"Song Hành Võ Nguyên Giáp, Phường An Khánh, Thành phố Hồ Chí Minh, Thủ Đức, 71108",75,4.5,supermarket,10.8024983,106.741571
"Bàn chải đánh răng, Kẹo cao su, Pin sạc, Khẩu trang y tế, Sổ tay nhỏ, Dây sạc điện thoại, Kẹo cao su, Trà đóng chai, Nước tăng lực, Mì gói, Khăn ướt, Kẹo cao su, Chai nước, Kẹo cao su, Khăn giấy, Cốc nhựa",Circle K,Ho Chi Minh City,"Phạm Ngũ Lão, Phường Bến Thành, Thành phố Hồ Chí Minh, 70200",10,4.1,convenience,10.7685511,106.6931625
"Bánh bao mini, Túi nylon, Khoai tây chiên, Muỗng nhựa, Găng tay nilon, Gối cổ du lịch, Khoai tây chiên, Ô dù gấp, Pin sạc, Bánh bao mini",Circle K,Ho Chi Minh City,"Lê Lợi, Phường Bến Thành, Thành phố Hồ Chí Minh, 71009",15,4.5,convenience,10.7725534,106.6991115
"Nước lau sàn, Giấy bọc thực phẩm, Túi đựng rác, Muối, Nước rửa chén, Gạo, Đường, Khăn giấy, Khẩu trang y tế, Nước tương, Khăn giấy, Khay nhựa, Ly thủy tinh",Co.op Mart Trường Chinh,Ho Chi Minh City,"Trường Chinh, Phường Tây Thạnh, Thuận An, 71509",40,4.2,supermarket,10.8176424,106.6311526
"Trà đóng chai, Khoai tây chiên, Kẹo, Bánh quy, Nước ngọt, Sổ tay nhỏ, Muỗng nhựa, Bánh mì sandwich, Cốc nhựa, Sổ tay nhỏ, Bánh mì sandwich, Sữa chua uống, Kem đánh răng, Sữa hộp, Bánh quy, Lăn khử mùi, Nước ngọt, Lăn khử mùi, Dao cạo râu",Circle K,Ho Chi Minh City,"Bùi Viện, Phường Bến Thành, Thành phố Hồ Chí Minh, 70200",10,3.8,convenience,10.7668906,106.6929873
"Thịt hộp, Bật lửa, Nước tăng lực, Bật lửa, Bánh quy, Thịt hộp, Bao rác, Dao cạo râu, Nước suối, Bàn chải đánh răng, Nước suối, Mì gói, Dầu gội, Dầu gội, Khoai tây chiên, Ô dù gấp, Găng tay nilon",Cửa Hàng Tiện Lợi B's Mart,Ho Chi Minh City,"Nguyễn Thái Học, Phường Bến Thành, Thành phố Hồ Chí Minh, 71010",20,3.5,convenience,10.7668069,106.6962928
"Giày cao gót, Đồ chơi trẻ em, Quần short, Áo sơ mi, Váy dạ hội, Túi xách, Áo sơ mi, Tai nghe Bluetooth, Thắt lưng, Máy sấy tóc, Mascara, Giày cao gót, Tai nghe Bluetooth, Thắt lưng, Dép sandal, Đồng hồ",Trung Tâm Mua Sắm Russian,Ho Chi Minh City,"Võ Văn Kiệt, Phường Bến Thành, Thành phố Hồ Chí Minh, 71010",150,4.5,mall,10.7617399,106.6950862
"Bánh kẹo, Sữa tươi, Khăn ướt, Sữa chua, Cà phê, Nước xả vải, Trà, Bình sữa, Nước lau sàn, Muối, Nước lau sàn, Sữa bột trẻ em, Sữa bột trẻ em, Dầu gội, Nước mắm, Nước xả vải, Bánh ăn dặm, Khăn giấy, Ngũ cốc",Tạp Hóa Út Huệ,Ho Chi Minh City,"519A, Lê Văn Khương, Phường Tân Thới Hiệp, Thuận An, 71514",15,3.8,department_store,10.8876785,106.6475465
"Bao rác, Sữa hộp, Bánh quy, Khoai tây chiên, Nước tăng lực, Dao cạo râu, Pin AA, Nước ngọt, Muỗng nhựa, Bao rác, Sữa chua uống, Kẹo, Bật lửa, Gối cổ du lịch, Muỗng nhựa, Dầu gội, Mì gói",tap hoa,Ho Chi Minh City,"222, Hoàng Diệu 2, Phường Thủ Đức, Phường Linh Xuân, 00848",10,4.3,convenience,10.8543113,106.7695192
"Dầu ăn, Sữa tươi, Mì gói, Sữa bột, Sữa chua, Dầu ăn, Gạo, Cà phê, Nước mắm, Sữa bột, Khăn giấy, Bánh kẹo",Th,Ho Chi Minh City,"16a, Phú Châu, Phường Tam Bình, Phường Dĩ An, Thành phố Hồ Chí Minh, 75350",15,4.4,department_store,10.8635558,106.74572
"Thực phẩm đóng hộp, Bột nêm, Thực phẩm đóng hộp, Trà, Muối, Nước suối, Giấy vệ sinh, Tã em bé, Ngũ cốc, Nước suối, Khăn giấy, Nước ngọt, Sữa bột trẻ em, Mì gói, Dầu gội, Sữa bột trẻ em",Nhge thuat,Ho Chi Minh City,"16a, Phú Châu, Phường Tam Bình, Phường Dĩ An, Thành phố Hồ Chí Minh, 75350",15,3.6,department_store,10.8634689,106.7456368
"Ô dù gấp, Bánh mì sandwich, Muỗng nhựa, Bao rác, Cà phê lon, Mì ly, Cà phê lon, Kem đánh răng, Kem đánh răng, Khoai tây chiên, Bánh mì sandwich",Tạp Hoá Bình,Ho Chi Minh City,"1126, Kha Vạn Cân, Linh Xuân, Phường Linh Xuân, 75350",20,4.1,convenience,10.8588023,106.7590556
"Sổ tay nhỏ, Bánh bao mini, Bánh snack, Trà đóng chai, Cốc nhựa, Khăn giấy, Nước tăng lực, Muỗng nhựa, Khoai tây chiên, Dầu gội, Mì ly, Mì ly, Nước tăng lực",tap hoa Gia Huy,Ho Chi Minh City,"86a, Tô Vĩnh Diện, Phường Thủ Đức, Thủ Đức, 71221",10,4.1,convenience,10.8532427,106.7678474
"Khẩu trang y tế, Kẹo, Mì gói, Lăn khử mùi, Khẩu trang y tế, Sổ tay nhỏ, Sữa chua uống, Khẩu trang y tế, Sữa hộp, Túi nylon, Sữa hộp, Pin sạc",tap hoa,Ho Chi Minh City,"40, Tô Vĩnh Diện, Phường Thủ Đức, Thủ Đức, 71221",20,3.9,convenience,10.8519062,106.7666163
"Pin sạc, Dây sạc điện thoại, Kem đánh răng, Bánh quy, Khẩu trang y tế, Bóng đèn LED mini, Nước ngọt, Khăn giấy, Muỗng nhựa, Ô dù gấp, Bao rác, Muỗng nhựa, Kẹo cao su, Bánh mì sandwich, Bánh quy, Xà phòng tắm, Chai nước, Mì gói, Thịt hộp, Bánh quy",Tạp Hoá Ngọc Hân,Ho Chi Minh City,"5, Hồ Văn Tư, Phường Thủ Đức, Phường Linh Xuân, 71221",20,3.5,convenience,10.8502187,106.754861
"Giấy vệ sinh, Bánh kẹo, Thực phẩm đóng hộp, Kem đánh răng, Sữa chua, Dầu ăn, Kem đánh răng, Khăn giấy, Gạo, Dầu gội, Nước ngọt, Nước xả vải, Nước xả vải, Dầu gội, Khăn giấy, Nước suối, Bột giặt, Nước xả vải",Shop Lam Anh,Ho Chi Minh City,"928, Tỉnh lộ 43, Phường Tam Bình, Thuận An, 75207",10,3.9,department_store,10.8817741,106.7292689
"Bàn chải đánh răng, Chai nước, Nước ngọt, Bánh snack, Bánh bao mini, Muỗng nhựa, Dầu gội, Khẩu trang y tế, Bao rác, Túi nylon, Khoai tây chiên, Cà phê lon, Nước ngọt",cantin trung hoc Thu Duc,Ho Chi Minh City,"Đường số 9, Phường Thủ Đức, Thủ Đức, 71221",20,3.9,convenience,10.8482282,106.762012
"Gối cổ du lịch, Ô dù gấp, Bàn chải đánh răng, Chai nước, Khoai tây chiên, Khăn giấy, Khẩu trang y tế, Pin sạc, Bật lửa, Kẹo, Dao cạo râu, Bánh quy, Bật lửa, Muỗng nhựa, Gối cổ du lịch, Khăn ướt, Nước tăng lực, Kẹo",tap hoa,Ho Chi Minh City,"86, Linh Trung, Linh Xuân, Phường Linh Xuân, 00084",10,3.9,convenience,10.860663,106.7721513
"Túi nylon, Bật lửa, Pin AA, Khăn giấy, Bánh mì sandwich, Lăn khử mùi, Ô dù gấp, Khoai tây chiên, Sữa hộp, Chai nước, Mì gói",tap hoa Phuong Vu,Ho Chi Minh City,"69, Chương Dương, Phường Thủ Đức, Thủ Đức, 71221",20,3.5,convenience,10.8539293,106.7588375
"Bình sữa, Dầu ăn, Sữa bột trẻ em, Bột nêm, Tã em bé, Sữa tắm, Cà phê, Cà phê, Bình sữa, Gạo",Tạp Hoá Tuấn Đức,Ho Chi Minh City,"1231/23c1, Đường B, Phường Tam Bình, Thuận An, 70000",20,4.1,department_store,10.8865562,106.7236943
"Chai nước, Bật lửa, Khẩu trang y tế, Mì ly, Kem đánh răng, Túi nylon, Dao cạo râu, Bàn chải đánh răng, Bóng đèn LED mini, Chai nước, Bánh quy, Mì ly, Bàn chải đánh răng, Bật lửa, Thịt hộp, Bánh quy, Dây sạc điện thoại, Bao rác, Kẹo, Sữa chua uống",tap hoa Minh phuong,Ho Chi Minh City,"1231/23c1, Đường B, Phường Tam Bình, Thuận An, 70000",20,4.4,convenience,10.8569155,106.7570566
"Pin sạc, Lăn khử mùi, Găng tay nilon, Ô dù gấp, Khoai tây chiên, Bao rác, Sữa chua uống, Sữa hộp, Kem đánh răng, Khăn giấy, Cà phê lon, Sữa chua uống, Cốc nhựa, Muỗng nhựa, Bóng đèn LED mini, Cốc nhựa, Găng tay nilon, Khoai tây chiên, Thịt hộp, Dây sạc điện thoại",thien ngan,Ho Chi Minh City,"15, Đường số 9, Linh Xuân, Phường Linh Xuân, 75350",15,3.7,convenience,10.8615056,106.755685
"Bột giặt, Gạo, Khăn giấy, Bánh ăn dặm, Muối, Ngũ cốc, Nước lau sàn, Nước ngọt, Sữa bột, Trà, Sữa bột trẻ em, Nước lau sàn, Bình sữa",Công Ty TNHH Trang Thiết Bị Bảo Hộ Thiên Phúc,Ho Chi Minh City,"177/25, Đường Liên khu 4-5, Phường Bình Tân, Thành phố Hồ Chí Minh, 71913",20,4.5,department_store,10.7987393,106.5864452
"Nước mắm, Đường, Muối, Nước mắm, Tã em bé, Sữa chua, Ngũ cốc, Nước rửa chén, Muối, Bánh kẹo, Bình sữa, Nước lau sàn",TH 1109,Ho Chi Minh City,"1109, Kha Vạn Cân, Phường Linh Xuân, 75350",10,4.1,department_store,10.8700052,106.7631808
"Sữa tắm, Tã em bé, Dầu ăn, Gạo, Nước lau sàn, Sữa chua, Nước ngọt, Thực phẩm đóng hộp, Sữa bột, Bánh ăn dặm, Bánh ăn dặm, Cà phê, Mì gói, Nước rửa chén, Mì gói, Bình sữa",mỹ tiên,Ho Chi Minh City,"22, Đào Trinh Nhất, Linh Xuân, Phường Linh Xuân, 75350",10,4,department_store,10.8668912,106.7578687
"Tã em bé, Bột giặt, Nước rửa chén, Bình sữa, Nước mắm, Nước ngọt, Muối, Nước rửa chén, Trà, Bánh ăn dặm, Bánh ăn dặm, Nước rửa chén, Sữa bột trẻ em, Muối, Gạo, Cà phê, Nước rửa chén, Tã em bé, Bánh ăn dặm",đức trí,Ho Chi Minh City,"100-102, Quốc lộ 1K, Phường Đông Hòa, Phường Linh Xuân, 00084",20,4.1,department_store,10.8782511,106.7666814
"Bánh ăn dặm, Bánh kẹo, Kem đánh răng, Ngũ cốc, Dầu gội, Tã em bé, Khăn giấy, Giấy vệ sinh, Dầu gội, Ngũ cốc, Muối",Phương điền,Ho Chi Minh City,"77, Quốc lộ 1K, Phường Đông Hòa, Phường Linh Xuân, 00084",20,3.9,department_store,10.8783246,106.7666829
"Ô dù gấp, Kem đánh răng, Lăn khử mùi, Dầu gội, Pin sạc, Khăn giấy, Dao cạo râu, Bao rác, Bánh bao mini, Pin sạc, Thịt hộp, Thịt hộp, Nước tăng lực, Thịt hộp, Nước suối, Bóng đèn LED mini, Bánh mì sandwich, Bao rác",Tạp Hoá Kim Anh,Ho Chi Minh City,"14, Hoàng Diệu 2, Phường Thủ Đức, Phường Linh Xuân, 75350",20,3.5,convenience,10.8604587,106.7614892
"Khăn ướt, Giấy vệ sinh, Sữa tắm, Dầu ăn, Giấy vệ sinh, Kem đánh răng, Sữa bột, Sữa bột trẻ em, Bình sữa, Dầu gội, Sữa bột, Sữa bột trẻ em, Khăn giấy, Nước mắm, Nước suối, Tã em bé",cẩm nhung,Ho Chi Minh City,"120.linh xuan, Quốc lộ 1K, Phường Đông Hòa, Phường Linh Xuân, 00084",20,4.1,department_store,10.8782403,106.7666639
"Khăn giấy, Giấy vệ sinh, Gạo, Mì gói, Nước ngọt, Bánh ăn dặm, Đường, Dầu gội, Khăn giấy, Bình sữa, Nước mắm, Cà phê, Bột nêm, Nước ngọt, Mì gói, Khăn ướt, Nước xả vải, Cà phê, Nước mắm",cẩm nhung,Ho Chi Minh City,"120.linh xuân, Quốc lộ 1K, Phường Đông Hòa, Thành phố Hồ Chí Minh, 00084",15,3.6,department_store,10.8786719,106.7667721
"Sữa chua, Sữa bột trẻ em, Nước ngọt, Nước suối, Bình sữa, Muối, Bột nêm, Nước mắm, Nước suối, Nước rửa chén, Nước suối, Thực phẩm đóng hộp, Kem đánh răng, Nước ngọt, Sữa chua, Gạo, Kem đánh răng, Sữa tắm, Trà",sỹ diễm,Ho Chi Minh City,"190, Đường Tăng Nhơn Phú, Phường Tăng Nhơn Phú, Thủ Đức, 71211",10,4.4,department_store,10.8354362,106.7822136
"Bánh ăn dặm, Nước ngọt, Bánh kẹo, Muối, Bình sữa, Cà phê, Nước suối, Bánh ăn dặm, Sữa chua, Nước lau sàn, Nước mắm, Nước mắm, Dầu gội, Khăn ướt, Dầu ăn, Sữa chua, Bột nêm, Kem đánh răng",thuận đào,Ho Chi Minh City,"10, Quốc lộ 1K, Phường Đông Hòa, Phường Linh Xuân, Thành phố Hồ Chí Minh, 00084",15,4.5,department_store,10.8786478,106.767621
"Lăn khử mùi, Lăn khử mùi, Khăn ướt, Khẩu trang y tế, Pin sạc, Mì ly, Nước tăng lực, Găng tay nilon, Sữa chua uống, Bàn chải đánh răng, Sổ tay nhỏ, Sổ tay nhỏ, Bàn chải đánh răng, Chai nước, Dầu gội, Bóng đèn LED mini, Bánh snack, Trà đóng chai, Dây sạc điện thoại",Tạp Hoá An Đức,Ho Chi Minh City,"127, Đỗ Xuân Hợp, Phường Phước Long, Thành phố Hồ Chí Minh, 71211",20,3.7,convenience,10.8300195,106.7681114
"Cà phê lon, Gối cổ du lịch, Khoai tây chiên, Kẹo, Găng tay nilon, Bật lửa, Nước tăng lực, Gối cổ du lịch, Bánh mì sandwich, Bánh bao mini, Mì gói, Nước ngọt, Kẹo cao su, Khăn ướt, Khẩu trang y tế, Bánh bao mini, Mì ly, Bao rác, Chai nước, Kẹo cao su",Tạp Hóa 2,Ho Chi Minh City,"241/32, An Dương Vương, Phường Phú Lâm, Thành phố Hồ Chí Minh, 72015",10,3.9,convenience,10.7583532,106.6262706
"Khoai tây chiên, Ô dù gấp, Mì gói, Muỗng nhựa, Pin sạc, Pin AA, Bánh snack, Pin AA, Xà phòng tắm, Găng tay nilon, Túi nylon, Bánh mì sandwich, Chai nước, Khăn ướt",Tạp Hóa 1,Ho Chi Minh City,"260/61, An Dương Vương, Phường Phú Lâm, Thành phố Hồ Chí Minh, 72015",10,4.1,convenience,10.7575789,106.6257239
"Sổ tay nhỏ, Trà đóng chai, Bút bi, Bóng đèn LED mini, Bánh snack, Trà đóng chai, Bánh snack, Xà phòng tắm, Mì gói, Sổ tay nhỏ, Sữa chua uống, Cốc nhựa, Sữa hộp, Khoai tây chiên, Bật lửa, Nước ngọt, Khăn giấy, Kẹo cao su, Kem đánh răng",tap hoa,Ho Chi Minh City,"32, Lương Thế Vinh, Phường Phú Thạnh, Thành phố Hồ Chí Minh, 72015",20,3.9,convenience,10.7639866,106.6299313
"Sữa chua, Thực phẩm đóng hộp, Nước ngọt, Cà phê, Ngũ cốc, Bình sữa, Đường, Nước rửa chén, Nước lau sàn, Khăn giấy, Sữa tắm",Tạp Hoá An nhiên,Ho Chi Minh City,"18, Đường số 11, Phường Phước Long, Thành phố Hồ Chí Minh, 71210",20,4.4,department_store,10.8141425,106.7751157
"Mì ly, Bánh snack, Bóng đèn LED mini, Khăn ướt, Dao cạo râu, Thịt hộp, Lăn khử mùi, Pin sạc, Kẹo cao su, Lăn khử mùi, Nước ngọt, Thịt hộp",cam tu,Ho Chi Minh City,"184, Đường Tân Hòa Đông, Phường Bình Trị Đông, Thành phố Hồ Chí Minh, 72015",15,4.2,convenience,10.7599114,106.6250822
"Pin sạc, Cốc nhựa, Chai nước, Bật lửa, Lăn khử mùi, Găng tay nilon, Cà phê lon, Dầu gội, Nước tăng lực, Bật lửa, Khăn ướt, Muỗng nhựa, Cốc nhựa, Dầu gội, Bóng đèn LED mini",tap hoa son,Ho Chi Minh City,"178b2, Tân Hòa Đông, Phường Phú Lâm, Thành phố Hồ Chí Minh, 72015",10,4.1,convenience,10.7596472,106.6254292
"Túi nylon, Kẹo, Bánh mì sandwich, Trà đóng chai, Kem đánh răng, Dao cạo râu, Bao rác, Bánh mì sandwich, Bóng đèn LED mini, Thịt hộp, Ô dù gấp, Khăn ướt, Dầu gội, Bánh snack, Sữa hộp, Lăn khử mùi, Kẹo, Khăn ướt",tap hoa,Ho Chi Minh City,"218, Đường số 2, Phường Phú Lâm, Thành phố Hồ Chí Minh, 73118",20,4.4,convenience,10.751189,106.6246978
"Sữa hộp, Ô dù gấp, Bút bi, Bàn chải đánh răng, Găng tay nilon, Gối cổ du lịch, Mì gói, Pin AA, Bao rác, Xà phòng tắm, Bánh bao mini, Khoai tây chiên, Bao rác",tap hoa,Ho Chi Minh City,"e9, Lô D-E Cư xá Phú Lâm B, Phường Phú Lâm, Thành phố Hồ Chí Minh, 73118",20,3.8,convenience,10.7535802,106.6299885
"Bột nêm, Kem đánh răng, Kem đánh răng, Bánh ăn dặm, Kem đánh răng, Nước xả vải, Bình sữa, Sữa chua, Dầu ăn, Bánh ăn dặm, Cà phê, Dầu ăn, Bột nêm, Nước ngọt, Khăn giấy, Mì gói, Dầu gội, Khăn ướt, Kem đánh răng, Bột giặt",Tiệm Đồ Hồi Giáo,Ho Chi Minh City,"Đường Số 3, Phường Tân Thuận, Thành phố Hồ Chí Minh, 71800",15,3.7,department_store,10.7428815,106.7324019
"Snack, Nước tương, Chảo chống dính, Sữa tắm, Muối, Giấy vệ sinh, Trứng gà, Trứng gà, Rau củ quả, Dầu ăn, Khay nhựa, Kem cạo râu, Mì gói, Trứng gà, Dầu gội",Giò Chả Thái Bình,Ho Chi Minh City,"27, Nguyễn Tri Phương, Phường Tam Thắng, Thành phố Hồ Chí Minh, 76666",30,4.4,supermarket,10.3612105,107.0865281
"Sữa tắm, Sữa tắm, Trà, Nước ngọt, Cà phê, Đường, Mì gói, Bánh ăn dặm, Kem đánh răng, Tã em bé, Nước suối, Sữa bột trẻ em, Sữa tắm, Bột nêm, Giấy vệ sinh, Tã em bé, Bột nêm, Nước xả vải, Gạo, Mì gói",thu hà,Ho Chi Minh City,"02, Đường Số 8, An Khánh, Phường An Khánh, Thành phố Hồ Chí Minh, Thành phố Hồ Chí Minh, 71108",10,3.8,department_store,10.7953367,106.7339071
"Găng tay nilon, Sổ tay nhỏ, Sữa hộp, Dây sạc điện thoại, Bàn chải đánh răng, Kẹo, Thịt hộp, Kẹo cao su, Sữa hộp, Mì gói, Lăn khử mùi, Thịt hộp, Thịt hộp, Mì ly, Lăn khử mùi, Bóng đèn LED mini, Bao rác, Kẹo cao su, Ô dù gấp, Bút bi",Cửa Hàng Sữa Susu,Ho Chi Minh City,"307, An Dương Vương, Phường Bình Phú, Thành phố Hồ Chí Minh, 71959",15,3.5,convenience,10.7354985,106.6214539
"Khăn ướt, Bánh bao mini, Cốc nhựa, Dao cạo râu, Bàn chải đánh răng, Bánh bao mini, Chai nước, Ô dù gấp, Thịt hộp, Kẹo, Bao rác, Trà đóng chai, Nước suối, Pin AA, Kẹo cao su, Thịt hộp, Sổ tay nhỏ, Bàn chải đánh răng, Khoai tây chiên, Mì ly",thuy,Ho Chi Minh City,"156, Đường Lý Chiêu Hoàng, Phường Bình Phú, Thành phố Hồ Chí Minh, 71910",15,3.9,convenience,10.7383245,106.6271376
"Pin AA, Pin sạc, Chai nước, Nước ngọt, Ô dù gấp, Bánh snack, Sổ tay nhỏ, Dao cạo râu, Khoai tây chiên, Muỗng nhựa, Pin sạc, Dây sạc điện thoại, Sữa hộp, Xà phòng tắm, Bánh bao mini, Gối cổ du lịch, Sữa chua uống, Muỗng nhựa, Thịt hộp",tap hoa,Ho Chi Minh City,"99, Nguyễn Văn Luông, Phường Bình Phú, Thành phố Hồ Chí Minh, 71910",15,4.5,convenience,10.7374945,106.6336041
"Sữa hộp, Bút bi, Trà đóng chai, Khăn ướt, Bật lửa, Bánh mì sandwich, Bánh snack, Dao cạo râu, Khăn giấy, Găng tay nilon, Kem đánh răng, Kem đánh răng, Bật lửa, Chai nước",tap hoa,Ho Chi Minh City,"177, Đường Gia Phú, Phường Bình Tiên, Thành phố Hồ Chí Minh, 73000",15,4.3,convenience,10.7465081,106.6523116
"Xà phòng tắm, Kem đánh răng, Mì gói, Bàn chải đánh răng, Cốc nhựa, Cốc nhựa, Thịt hộp, Túi nylon, Túi nylon, Cà phê lon, Pin sạc, Sữa hộp, Ô dù gấp, Trà đóng chai, Thịt hộp, Sữa chua uống, Ô dù gấp, Trà đóng chai",tap hoa,Ho Chi Minh City,"343/296, Hẻm 45 Bình Tiên, Phường Bình Tiên, Thành phố Hồ Chí Minh, 71910",20,3.5,convenience,10.7405462,106.6422421
"Túi nylon, Dao cạo râu, Sữa chua uống, Bánh mì sandwich, Mì ly, Túi nylon, Lăn khử mùi, Bàn chải đánh răng, Kem đánh răng, Bật lửa, Kem đánh răng, Kẹo cao su, Mì gói, Bánh quy, Bánh quy",can vi,Ho Chi Minh City,"395, Đường Lê Quang Sung, Phường Bình Tây, Thành phố Hồ Chí Minh, 72015",20,4.4,convenience,10.7518229,106.6408665
"Sữa chua uống, Bánh snack, Chai nước, Lăn khử mùi, Dao cạo râu, Găng tay nilon, Pin AA, Bóng đèn LED mini, Bánh snack, Sữa chua uống, Muỗng nhựa, Bánh mì sandwich",Bách Hoá Trung Nghĩa,Ho Chi Minh City,"1283, Tỉnh lộ 43, Phường Bình Hòa, Phường Tam Bình, Thành phố Hồ Chí Minh, 75207",10,4.3,convenience,10.8923658,106.7237486
"Bột nêm, Muối, Kem đánh răng, Kem đánh răng, Bột nêm, Đường, Bột giặt, Kem đánh răng, Giấy vệ sinh, Tã em bé, Nước ngọt, Bánh ăn dặm, Giấy vệ sinh, Khăn ướt, Sữa tươi, Sữa tươi, Tã em bé",Ngoc hằng,Ho Chi Minh City,"28, Đường số 2, Phường Bình Hòa, Thuận An, 75207",15,3.8,department_store,10.8918183,106.7301443
"Cà phê lon, Bánh bao mini, Dao cạo râu, Mì gói, Bánh quy, Sổ tay nhỏ, Bật lửa, Pin sạc, Bánh mì sandwich, Kẹo",Satra Foods,Ho Chi Minh City,"35, Phú Thuận, Phú Thuận, Phường Phú Thuận, 71800",10,3.6,convenience,10.7316837,106.7376675
"Bánh bao mini, Ô dù gấp, Túi nylon, Khoai tây chiên, Thịt hộp, Chai nước, Nước ngọt, Gối cổ du lịch, Dầu gội, Nước tăng lực, Khẩu trang y tế, Nước tăng lực, Nước ngọt, Kem đánh răng",Cửa Hàng Tony Huy,Ho Chi Minh City,"50, Phú Thuận, Phú Thuận, Phường Phú Thuận, 71800",20,4.3,convenience,10.7314334,106.7340756
"Pin AA, Dầu gội, Cà phê lon, Bánh snack, Bàn chải đánh răng, Muỗng nhựa, Thịt hộp, Kem đánh răng, Kẹo, Bút bi, Khăn ướt, Bánh snack, Dao cạo râu, Cà phê lon, Trà đóng chai, Chai nước, Bàn chải đánh răng, Pin sạc, Khăn ướt",Tạp Hoá Chị Thuý,Ho Chi Minh City,"487/47, Hẻm 487/47/9 Huỳnh Tấn Phát, Phường Tân Thuận, Thành phố Hồ Chí Minh, 71800",20,3.6,convenience,10.7455524,106.7323356
"Nước ngọt, Túi nylon, Pin sạc, Kem đánh răng, Bánh bao mini, Mì ly, Sữa chua uống, Muỗng nhựa, Bàn chải đánh răng, Gối cổ du lịch, Chai nước, Bàn chải đánh răng, Kẹo cao su, Pin sạc, Sổ tay nhỏ, Gối cổ du lịch, Cà phê lon",Caffe K-Ban,Ho Chi Minh City,"2, Phú Thuận, Phú Thuận, Phường Phú Thuận, 71800",20,4.5,convenience,10.7307709,106.7323382
"Nước mắm, Nước suối, Dầu gội, Sữa tươi, Thực phẩm đóng hộp, Nước suối, Nước suối, Sữa tươi, Khăn ướt, Đường, Đường",Bảo châu,Ho Chi Minh City,"02, Đường số 2, Phường Bình Hòa, Thuận An, 75207",15,4.3,department_store,10.8917536,106.7297757
"Trà đóng chai, Dao cạo râu, Khăn ướt, Lăn khử mùi, Dầu gội, Dầu gội, Kẹo, Dây sạc điện thoại, Sữa chua uống, Nước suối, Pin AA, Nước suối, Dây sạc điện thoại, Bánh bao mini, Bật lửa, Găng tay nilon, Gối cổ du lịch, Kẹo cao su, Kem đánh răng",Quán Ăn Thảo,Ho Chi Minh City,"30, Hẻm 44 Bùi Văn Ba, Phường Tân Thuận, Thành phố Hồ Chí Minh, 71800",10,4.4,convenience,10.7500519,106.7301677
"Sữa hộp, Mì gói, Mì gói, Bánh mì sandwich, Khăn giấy, Dao cạo râu, Mì gói, Bút bi, Nước tăng lực, Khẩu trang y tế, Pin sạc, Pin sạc, Kem đánh răng, Muỗng nhựa, Nước tăng lực, Chai nước, Sổ tay nhỏ, Bánh quy, Bóng đèn LED mini",Tạp Hoá Quỳnh Như,Ho Chi Minh City,"16, Phú Thuận, Phú Thuận, Phường Phú Thuận, 71800",15,3.7,convenience,10.7309297,106.7331517
"Bánh snack, Xà phòng tắm, Kẹo, Xà phòng tắm, Găng tay nilon, Pin sạc, Bật lửa, Sổ tay nhỏ, Ô dù gấp, Bánh quy, Bóng đèn LED mini, Mì gói, Găng tay nilon, Thịt hộp, Dây sạc điện thoại, Bóng đèn LED mini, Muỗng nhựa",Nail - Thuỷ Tiên,Ho Chi Minh City,"487/47/38, Hẻm 487/47 Huỳnh Tấn Phát, Phường Tân Thuận, Thành phố Hồ Chí Minh, 71800",20,4.5,convenience,10.7457365,106.7328209
"Bàn chải đánh răng, Nước suối, Bánh quy, Bánh mì sandwich, Muỗng nhựa, Cốc nhựa, Nước suối, Muỗng nhựa, Túi nylon, Trà đóng chai",Tạp Hoá Thuý,Ho Chi Minh City,"39/11, Hẻm 39 Bùi Văn Ba, Phường Tân Thuận, Thành phố Hồ Chí Minh, 71800",10,4,convenience,10.7507402,106.7301066
"Kẹo, Bánh quy, Mì ly, Kẹo, Bật lửa, Bao rác, Nước ngọt, Bao rác, Khoai tây chiên, Dây sạc điện thoại, Mì gói, Gối cổ du lịch, Sữa chua uống, Pin sạc, Lăn khử mùi, Mì ly",Tạp Hoá Ngọc Hân,Ho Chi Minh City,"487/47/40, Hẻm 487/47B Đường Huỳnh Tấn Phát, Phường Tân Thuận, Thành phố Hồ Chí Minh, 71800",20,3.8,convenience,10.7455285,106.7329621
"Lăn khử mùi, Pin sạc, Bàn chải đánh răng, Muỗng nhựa, Mì ly, Xà phòng tắm, Kem đánh răng, Gối cổ du lịch, Dầu gội, Sữa chua uống, Kem đánh răng",Bách Hoá Tổng Hợp Mỹ Duyên,Ho Chi Minh City,"458/33, Hẻm 458 Huỳnh Tấn Phát, Phường Tân Thuận, Thành phố Hồ Chí Minh, 71800",20,4.1,convenience,10.7442993,106.7281808
"Khăn ướt, Bóng đèn LED mini, Kẹo, Bánh bao mini, Nước tăng lực, Thịt hộp, Kẹo, Kem đánh răng, Dao cạo râu, Trà đóng chai, Mì gói, Sổ tay nhỏ, Dây sạc điện thoại, Cốc nhựa, Khoai tây chiên, Pin sạc, Bàn chải đánh răng, Dây sạc điện thoại, Mì gói, Găng tay nilon",Thời Trang Tóc Mỹ Hạnh,Ho Chi Minh City,"458/22b, Hẻm 458 Huỳnh Tấn Phát, Phường Tân Thuận, Thành phố Hồ Chí Minh, 71800",10,4,convenience,10.744027,106.7273301
"Kem đánh răng, Bánh snack, Găng tay nilon, Kem đánh răng, Ô dù gấp, Dây sạc điện thoại, Sổ tay nhỏ, Bút bi, Bóng đèn LED mini, Mì gói, Trà đóng chai, Nước ngọt, Khoai tây chiên, Bánh quy, Thịt hộp, Chai nước",Tạp Hoá Thảo Vân,Ho Chi Minh City,"458/16, Hẻm 458 Huỳnh Tấn Phát, Phường Tân Thuận, Thành phố Hồ Chí Minh, 71800",15,4.4,convenience,10.7442447,106.7279122
"Pin sạc, Khăn ướt, Thịt hộp, Cà phê lon, Chai nước, Xà phòng tắm, Mì gói, Khăn ướt, Thịt hộp, Mì gói, Bánh mì sandwich, Bút bi, Bao rác, Găng tay nilon, Sổ tay nhỏ, Dầu gội, Bánh bao mini",Tạp Hoá Cô Chín,Ho Chi Minh City,"80, Lý Phục Man, Phường Tân Thuận, Thành phố Hồ Chí Minh, 71800",15,3.7,convenience,10.7431575,106.7257003
"Mì gói, Nước ngọt, Khăn ướt, Thịt hộp, Sổ tay nhỏ, Bút bi, Bánh bao mini, Lăn khử mùi, Muỗng nhựa, Bao rác, Bút bi, Mì ly, Kẹo",Giặt ủi 22A,Ho Chi Minh City,"19b, Lý Phục Man, Phường Tân Thuận, Thành phố Hồ Chí Minh, 71800",20,3.6,convenience,10.7435496,106.7280093
"Túi nylon, Thịt hộp, Mì ly, Thịt hộp, Trà đóng chai, Bánh quy, Bánh snack, Cốc nhựa, Dao cạo râu, Lăn khử mùi, Khăn ướt, Ô dù gấp, Chai nước, Nước suối",Điện Lạnh Đông Khoa,Ho Chi Minh City,"22, Lý Phục Man, Phường Tân Thuận, Thành phố Hồ Chí Minh, 71800",10,4.4,convenience,10.7434036,106.728205
"Thịt hộp, Bánh bao mini, Cà phê lon, Khăn ướt, Ô dù gấp, Ô dù gấp, Túi nylon, Chai nước, Kẹo, Dây sạc điện thoại, Mì gói, Khẩu trang y tế, Bánh quy",Phụ Tùng Yamaha - Dương,Ho Chi Minh City,"34, Lý Phục Man, Phường Tân Thuận, Thành phố Hồ Chí Minh, 71800",10,3.7,convenience,10.7432273,106.7275708
"Thịt hộp, Nước suối, Bánh snack, Kẹo, Bút bi, Nước tăng lực, Pin AA, Dầu gội, Xà phòng tắm, Sữa hộp, Nước tăng lực, Ô dù gấp, Bao rác, Sữa chua uống, Pin AA, Sữa hộp, Kem đánh răng",Tạp Hoá Thu Hiền,Ho Chi Minh City,"502/27, Hẻm 502/23 Đường Huỳnh Tấn Phát, Phường Tân Thuận, Thành phố Hồ Chí Minh, 71800",15,3.9,convenience,10.7417471,106.7282925
"Mì gói, Nước mắm, Tã em bé, Nước xả vải, Tã em bé, Khăn giấy, Nước mắm, Dầu gội, Mì gói, Bình sữa, Nước mắm",TH Nghệ thuật,Ho Chi Minh City,"18 a, Phú Châu, Tam Bình, Phường Tam Bình, Thành phố Hồ Chí Minh, 75350",10,3.9,department_store,10.8635363,106.7456802
"Kem đánh răng, Bánh mì sandwich, Muỗng nhựa, Khẩu trang y tế, Thịt hộp, Nước tăng lực, Cốc nhựa, Lăn khử mùi, Bật lửa, Kẹo cao su, Trà đóng chai, Bánh mì sandwich, Dây sạc điện thoại, Túi nylon, Bánh bao mini, Cà phê lon, Mì gói",Giò Chả Hoàng Nguyên,Ho Chi Minh City,"502/43, Hẻm 502 Huỳnh Tấn Phát, Phường Tân Thuận, Thành phố Hồ Chí Minh, 71800",10,3.8,convenience,10.7415663,106.7275665
"Tã em bé, Đường, Bột giặt, Thực phẩm đóng hộp, Sữa bột, Nước mắm, Sữa bột trẻ em, Trà, Nước xả vải, Sữa bột, Kem đánh răng, Bánh kẹo, Nước mắm",Cửa Hàng Sữa Tường Vi,Ho Chi Minh City,"997, Tỉnh lộ 43, Tam Bình, Phường Tam Bình, Thành phố Hồ Chí Minh, 75207",15,4.4,department_store,10.8802908,106.7296419
"Muỗng nhựa, Túi nylon, Gối cổ du lịch, Cà phê lon, Nước tăng lực, Kẹo cao su, Bút bi, Khoai tây chiên, Bút bi, Bóng đèn LED mini, Gối cổ du lịch, Bánh snack, Khoai tây chiên, Bật lửa, Sữa hộp, Mì ly, Bóng đèn LED mini, Bao rác, Nước ngọt",Tạp Hoá - Đại Lý Nước Đá,Ho Chi Minh City,"Lê Văn Lương, Phường Tân Hưng, Thành phố Hồ Chí Minh, 72911",15,4.3,convenience,10.7411893,106.7038283
"Nước ngọt, Cà phê lon, Khẩu trang y tế, Gối cổ du lịch, Trà đóng chai, Cà phê lon, Nước suối, Mì ly, Dầu gội, Dây sạc điện thoại, Bánh mì sandwich, Khoai tây chiên, Bao rác, Trà đóng chai",cam nhung,Ho Chi Minh City,"95, Lâm Văn Bền, Phường Tân Thuận, Thành phố Hồ Chí Minh, 71800",15,4.4,convenience,10.7469221,106.7159615
"Nước suối, Mì gói, Nước mắm, Nước mắm, Khăn giấy, Sữa bột trẻ em, Trà, Cà phê, Thực phẩm đóng hộp, Sữa bột, Muối, Giấy vệ sinh, Sữa tươi, Dầu ăn, Sữa tắm",thu thảo,Ho Chi Minh City,"68a, Linh Đông, Phường Hiệp Bình, Thủ Đức, 71221",15,4.2,department_store,10.84923,106.747293
"Bình sữa, Tã em bé, Nước rửa chén, Kem đánh răng, Ngũ cốc, Khăn giấy, Mì gói, Bột nêm, Nước rửa chén, Đường, Kem đánh răng, Muối, Cà phê, Khăn giấy, Bình sữa",thiên anh,Ho Chi Minh City,"19a, Linh Đông, Phường Hiệp Bình, Thủ Đức, 71221",20,4.2,department_store,10.8456193,106.7459414
"Lăn khử mùi, Bánh mì sandwich, Sữa hộp, Chai nước, Khoai tây chiên, Kẹo, Cà phê lon, Nước tăng lực, Mì gói, Khăn giấy, Trà đóng chai, Bàn chải đánh răng, Pin sạc",Tạp Hoá Mai Phương,Ho Chi Minh City,"756, Đường Huỳnh Tấn Phát, Phường Tân Mỹ, Thành phố Hồ Chí Minh, 71800",10,4,convenience,10.7310996,106.7316707
"Bánh snack, Túi nylon, Bánh mì sandwich, Dao cạo râu, Bánh bao mini, Ô dù gấp, Mì gói, Chai nước, Dao cạo râu, Bật lửa, Sổ tay nhỏ, Kẹo cao su, Sữa chua uống",Circle K,Ho Chi Minh City,"Nguyễn Văn Tráng, Phường Bến Thành, Thành phố Hồ Chí Minh, 70200",20,3.5,convenience,10.7697839,106.6924932
"Dầu gội, Cốc nhựa, Cốc nhựa, Khăn giấy, Khăn ướt, Gối cổ du lịch, Muỗng nhựa, Gối cổ du lịch, Mì gói, Gối cổ du lịch, Bóng đèn LED mini, Nước ngọt, Sữa hộp, Chai nước, Sữa hộp, Mì gói, Ô dù gấp, Bóng đèn LED mini",Tạp Hoá - Cafe - Giải Khát,Ho Chi Minh City,"32, Đường Số 81, Phường Tân Hưng, Thành phố Hồ Chí Minh, 72910",15,4.3,convenience,10.7398969,106.7067369
"Bánh kẹo, Khăn ướt, Bánh kẹo, Muối, Gạo, Khăn giấy, Trà, Kem đánh răng, Đường, Muối, Ngũ cốc, Trà, Khăn ướt",Shop 16,Ho Chi Minh City,"35/19, Phạm Ngọc Thạch, Phường Phú Lợi, Thành phố Hồ Chí Minh, 75111",15,4.2,department_store,10.9991527,106.6568627
"Khăn ướt, Nước rửa chén, Dầu gội, Kem đánh răng, Nước ngọt, Thực phẩm đóng hộp, Dầu gội, Trà, Sữa bột, Bình sữa, Thực phẩm đóng hộp, Bột giặt, Khăn giấy, Sữa chua, Cà phê, Nước suối, Bánh ăn dặm",thuý hường,Ho Chi Minh City,"DJ10, Đường DJ10, Phường Thới Hòa, Thành phố Hồ Chí Minh, 75900",15,3.8,department_store,11.1005477,106.6407027
"Sữa tắm, Thực phẩm đóng hộp, Khăn giấy, Nước suối, Nước xả vải, Nước ngọt, Thực phẩm đóng hộp, Trà, Sữa bột, Sữa tắm, Giấy vệ sinh, Bánh ăn dặm, Trà, Ngũ cốc, Khăn ướt",Tùng lâm,Ho Chi Minh City,"03 mp3, Đường DJ5, Phường Thới Hòa, Thành phố Hồ Chí Minh, 75900",15,4.5,department_store,11.0974846,106.6372009
"Dầu ăn, Gạo, Ngũ cốc, Nước lau sàn, Bánh ăn dặm, Nước xả vải, Khăn giấy, Sữa tắm, Dầu gội, Bánh ăn dặm, Nước rửa chén, Muối, Sữa bột",Ngọc sơn,Ho Chi Minh City,"Dj9 mp3, Đường DJ9, Phường Thới Hòa, Thành phố Hồ Chí Minh, 75900",10,4.3,department_store,11.0979661,106.6404132
"Nước lau sàn, Bột nêm, Nước rửa chén, Nước rửa chén, Trà, Khăn giấy, Bột giặt, Bột nêm, Sữa bột trẻ em, Mì gói, Khăn giấy, Mì gói, Thực phẩm đóng hộp, Khăn giấy",hoà lan,Ho Chi Minh City,"DJ9, Đường DJ9, Phường Thới Hòa, Thành phố Hồ Chí Minh, 75900",15,3.9,department_store,11.098465,106.6402478
"Bánh ăn dặm, Cà phê, Nước mắm, Cà phê, Sữa tắm, Bình sữa, Nước xả vải, Đường, Bột nêm, Dầu gội, Nước ngọt, Kem đánh răng, Bột giặt",quang vinh,Ho Chi Minh City,"DJ9, Đường NJ19, Phường Thới Hòa, Thành phố Hồ Chí Minh, 75900",15,3.5,department_store,11.0993795,106.6400633
"Bột nêm, Nước mắm, Tã em bé, Khăn giấy, Nước mắm, Nước ngọt, Tã em bé, Nước rửa chén, Bánh kẹo, Dầu gội, Sữa tắm, Khăn ướt",Việt hương,Ho Chi Minh City,"Dj9 mp3, Đường DJ9, Phường Thới Hòa, Thành phố Hồ Chí Minh, 75900",15,3.8,department_store,11.0974688,106.6401054
"Dầu ăn, Bình sữa, Tã em bé, Sữa bột trẻ em, Nước rửa chén, Khăn ướt, Sữa tươi, Nước ngọt, Tã em bé, Trà, Tã em bé, Cà phê, Nước xả vải",ngoc trâm,Ho Chi Minh City,"D10, Đường DJ10, Phường Thới Hòa, Thành phố Hồ Chí Minh, 75900",15,3.9,department_store,11.0979622,106.6408993
"Sữa chua, Gạo, Sữa chua, Khăn ướt, Giấy vệ sinh, Khăn giấy, Cà phê, Gạo, Bột giặt, Bột giặt, Tã em bé, Sữa tắm, Nước rửa chén, Sữa bột, Sữa chua",hồng hạnh,Ho Chi Minh City,"DJ10, Đường DJ9, Phường Thới Hòa, Thành phố Hồ Chí Minh, 75900",10,3.6,department_store,11.100145,106.6401839
"Nước lau sàn, Nước suối, Dầu ăn, Giấy vệ sinh, Sữa tắm, Sữa bột, Nước mắm, Gạo, Sữa tươi, Đường, Sữa tươi, Bình sữa, Bánh kẹo",ngoc minh,Ho Chi Minh City,"29/1, Phạm Ngọc Thạch, Phường Phú Lợi, Thành phố Hồ Chí Minh, 75111",20,3.8,department_store,10.9993347,106.656405
"Mì gói, Nước lau sàn, Nước rửa chén, Sữa tắm, Bình sữa, Nước ngọt, Cà phê, Nước mắm, Bột giặt, Nước ngọt, Dầu gội, Nước ngọt",Hương thịnh,Ho Chi Minh City,"nj 10, Đường NJ17, Phường Thới Hòa, Thành phố Hồ Chí Minh, 75900",15,4.5,department_store,11.1007584,106.6408738
"Ngũ cốc, Nước lau sàn, Đường, Sữa bột trẻ em, Ngũ cốc, Trà, Trà, Sữa tắm, Tã em bé, Nước rửa chén, Nước rửa chén, Nước xả vải, Nước rửa chén, Nước ngọt, Nước mắm, Nước ngọt, Giấy vệ sinh, Nước ngọt, Bình sữa, Dầu ăn",cô hạnh,Ho Chi Minh City,"35/19, Phạm Ngọc Thạch, Phường Phú Lợi, Thành phố Hồ Chí Minh, 75111",20,4.4,department_store,10.9991093,106.6568004
"Cà phê, Ngũ cốc, Trà, Ngũ cốc, Sữa chua, Kem đánh răng, Tã em bé, Dầu gội, Nước rửa chén, Bột giặt, Sữa bột trẻ em, Kem đánh răng, Bột giặt, Kem đánh răng",Tấn tài lộc,Ho Chi Minh City,"54, Phạm Ngọc Thạch, Phường Phú Lợi, Thành phố Hồ Chí Minh, 75111",10,3.9,department_store,10.999376,106.6564866
"Cà phê, Khăn ướt, Thực phẩm đóng hộp, Nước suối, Nước xả vải, Mì gói, Gạo, Sữa tươi, Sữa tắm, Khăn giấy, Mì gói, Bánh ăn dặm, Bánh kẹo, Sữa tươi",Nam giang,Ho Chi Minh City,"mp3, Đường DJ10, Phường Thới Hòa, Thành phố Hồ Chí Minh, 75900",15,3.7,department_store,11.0983671,106.6408738
"Thực phẩm đóng hộp, Bình sữa, Đường, Thực phẩm đóng hộp, Cà phê, Sữa bột, Dầu ăn, Bột nêm, Sữa bột, Dầu ăn, Đường, Nước ngọt",Hải đăng,Ho Chi Minh City,"3b mp3, Đường DJ10, Phường Thới Hòa, Thành phố Hồ Chí Minh, 75900",15,3.8,department_store,11.0980307,106.6407817
"Sữa bột, Mì gói, Nước mắm, Sữa bột trẻ em, Cà phê, Kem đánh răng, Nước ngọt, Đường, Giấy vệ sinh, Nước mắm, Kem đánh răng, Sữa chua, Đường, Bánh kẹo, Bột giặt, Bánh ăn dặm, Cà phê, Bột giặt, Mì gói, Nước mắm",Hùng trang,Ho Chi Minh City,"Dj9 mp3, Đường DJ9, Phường Thới Hòa, Thành phố Hồ Chí Minh, 75900",10,3.7,department_store,11.1002876,106.6401369
"Dầu ăn, Mì gói, Bình sữa, Khăn ướt, Bột nêm, Sữa bột trẻ em, Nước xả vải, Trà, Gạo, Nước mắm, Bột giặt, Mì gói, Nước mắm",Minh châu,Ho Chi Minh City,"Dj9 mp3, Đường DJ9, Phường Thới Hòa, Thành phố Hồ Chí Minh, 75900",20,4.5,department_store,11.0994335,106.6401369
"Sữa tươi, Dầu gội, Gạo, Gạo, Muối, Bột nêm, Bánh kẹo, Khăn ướt, Tã em bé, Tã em bé, Sữa chua, Gạo, Bánh kẹo, Nước rửa chén, Giấy vệ sinh, Khăn ướt, Nước ngọt",Thanh tuyền,Ho Chi Minh City,"Dj9 mp3, Đường DJ9, Phường Thới Hòa, Thành phố Hồ Chí Minh, 75900",20,3.6,department_store,11.0987451,106.640229
"Sữa chua, Nước mắm, Ngũ cốc, Nước rửa chén, Sữa bột, Khăn giấy, Mì gói, Sữa tươi, Muối, Bột nêm, Kem đánh răng, Bình sữa, Thực phẩm đóng hộp, Dầu gội, Khăn giấy, Nước ngọt, Trà, Mì gói, Nước ngọt",kim hoa,Ho Chi Minh City,"DJ9, Đường DJ9, Phường Thới Hòa, Thành phố Hồ Chí Minh, 75900",20,4.2,department_store,11.0975237,106.6399764
"Giấy vệ sinh, Bột nêm, Nước ngọt, Tã em bé, Trà, Dầu ăn, Nước mắm, Dầu gội, Thực phẩm đóng hộp, Trà",Cty TNHH MTV XNK Phong Vân,Ho Chi Minh City,"42, Đường số 20, Xã Bình Hưng, Thành phố Hồ Chí Minh, 72400",20,3.6,department_store,10.7300633,106.6522033
"Gạo, Dầu gội, Tã em bé, Bột giặt, Cà phê, Khăn ướt, Khăn ướt, Sữa bột, Bình sữa, Nước rửa chén, Muối, Trà, Tã em bé, Nước rửa chén",bella,Ho Chi Minh City,"DT 747.kp7, Đường tỉnh 747, Phường Tân Uyên, Thành phố Hồ Chí Minh",20,4,department_store,11.0898774,106.7715333
"Ngũ cốc, Sữa tắm, Bánh ăn dặm, Nước xả vải, Nước mắm, Đường, Bột nêm, Ngũ cốc, Trà, Mì gói, Mì gói, Cà phê, Ngũ cốc, Nước mắm, Sữa bột, Sữa bột trẻ em",quỳnh trang,Ho Chi Minh City,"KP8.uyên hưng, Đường tỉnh 747B, Phường Tân Hiệp, Thành phố Hồ Chí Minh",10,4.3,department_store,11.0763419,106.7644945
"Nước suối, Tã em bé, Nước mắm, Trà, Mì gói, Gạo, Kem đánh răng, Sữa tươi, Khăn giấy, Bánh kẹo, Khăn ướt, Mì gói, Giấy vệ sinh, Nước rửa chén, Tã em bé",hà lệ,Ho Chi Minh City,"Kp8.uyên hưng, Đường tỉnh 747B, Phường Tân Uyên, Thành phố Hồ Chí Minh",15,4.2,department_store,11.0686147,106.7608476
"Nước mắm, Bột nêm, Kem đánh răng, Bánh kẹo, Sữa tươi, Sữa bột trẻ em, Mì gói, Giấy vệ sinh, Bánh ăn dặm, Giấy vệ sinh, Đường, Khăn giấy, Thực phẩm đóng hộp",thành phát,Ho Chi Minh City,"ô số9.lô c, Đường tỉnh 747, Phường Bình Cơ, Thành phố Hồ Chí Minh",10,4.4,department_store,11.0961551,106.7718998
"Sữa tươi, Sữa tắm, Bột nêm, Sữa tươi, Trà, Tã em bé, Giấy vệ sinh, Sữa tắm, Bánh kẹo, Sữa tắm",phương uyên,Ho Chi Minh City,"lô 10, Đường tỉnh 746, Phường Tân Hiệp, Thành phố Hồ Chí Minh",15,3.6,department_store,11.0489313,106.7523839
"Giấy vệ sinh, Giấy vệ sinh, Nước lau sàn, Bánh kẹo, Mì gói, Gạo, Ngũ cốc, Bột nêm, Nước xả vải, Khăn ướt, Nước rửa chén, Khăn ướt, Nước rửa chén",chí linh,Ho Chi Minh City,"tổ 4.uyên hưng, Đường tỉnh 747B, Phường Tân Uyên, Thành phố Hồ Chí Minh",15,4,department_store,11.0766934,106.7649078
"Gạo, Bột giặt, Đường, Tã em bé, Đường, Ngũ cốc, Khăn ướt, Trà, Bột giặt, Tã em bé, Tã em bé, Gạo, Cà phê",hoàng yến,Ho Chi Minh City,"lô 7, Đường tỉnh 747, Phường Bình Cơ, Thành phố Hồ Chí Minh",10,3.6,department_store,11.0962957,106.7720794
"Kem đánh răng, Sữa tươi, Sữa tươi, Bình sữa, Bánh ăn dặm, Khăn giấy, Sữa bột, Sữa tắm, Thực phẩm đóng hộp, Ngũ cốc, Giấy vệ sinh",thuỳ dương,Ho Chi Minh City,"a1, Đường tỉnh 747, Phường Bình Cơ, Thành phố Hồ Chí Minh",10,3.8,department_store,11.1007033,106.7664437
"Bánh kẹo, Sữa tắm, Bình sữa, Cà phê, Ngũ cốc, Sữa tươi, Sữa bột trẻ em, Nước lau sàn, Sữa bột, Bột nêm",thuý hằng,Ho Chi Minh City,"ấp1.hội ngĩa, Đường tỉnh 747, Phường Bình Cơ, Thành phố Hồ Chí Minh",15,4.3,department_store,11.0997819,106.7682856
"Nước rửa chén, Sữa tươi, Dầu gội, Đường, Sữa tươi, Nước rửa chén, Gạo, Kem đánh răng, Thực phẩm đóng hộp, Dầu gội, Kem đánh răng, Sữa chua",ngân,Ho Chi Minh City,"ấp1.hội nghĩa, Đường tỉnh 747, Phường Bình Cơ, Thành phố Hồ Chí Minh",15,4.4,department_store,11.1019323,106.7651338
"Sữa bột, Sữa chua, Bánh kẹo, Nước lau sàn, Mì gói, Nước rửa chén, Khăn giấy, Sữa tươi, Bột giặt, Nước suối, Tã em bé, Ngũ cốc, Dầu gội, Ngũ cốc, Kem đánh răng, Nước suối, Đường",luôn đạt,Ho Chi Minh City,"ấp 1.hội nghĩa, Đường tỉnh 747, Phường Bình Cơ, Thành phố Hồ Chí Minh",20,3.6,department_store,11.1036167,106.7632047
"Giấy vệ sinh, Sữa tắm, Nước mắm, Nước suối, Nước ngọt, Bột nêm, Bột giặt, Khăn giấy, Nước mắm, Đường, Bình sữa, Cà phê, Trà, Khăn giấy, Dầu gội, Khăn ướt, Dầu ăn",cường hiền,Ho Chi Minh City,"ấp2.hội nghĩa, Đường tỉnh 747, Phường Bình Cơ, Thành phố Hồ Chí Minh",15,4.3,department_store,11.1097274,106.7581522
"Sữa bột trẻ em, Trà, Thực phẩm đóng hộp, Nước mắm, Nước rửa chén, Nước suối, Sữa tắm, Bình sữa, Nước rửa chén, Mì gói, Đường, Bột nêm",minh sương,Ho Chi Minh City,"tổ3.bình mỹ, Đường tỉnh 747, Phường Bình Cơ, Thành phố Hồ Chí Minh, 75409",20,4.1,department_store,11.1225247,106.7463083
"Sữa tươi, Sữa tắm, Trà, Sữa bột trẻ em, Sữa tươi, Nước rửa chén, Dầu ăn, Trà, Nước suối, Giấy vệ sinh, Tã em bé",tuyết phượng,Ho Chi Minh City,"tổ 3.hội nghĩa, Đường tỉnh 747, Phường Bình Cơ, Thành phố Hồ Chí Minh, 75409",20,4,department_store,11.1163319,106.7515584
"Nước ngọt, Dầu gội, Dầu gội, Bao rác, Thịt hộp, Nước tăng lực, Bánh quy, Chai nước, Lăn khử mùi, Ô dù gấp",WinMart,Ho Chi Minh City,"106, Bành Văn Trân, Phường Tân Sơn Nhất, Thành phố Hồ Chí Minh, 72117",15,3.7,convenience,10.788457,106.656597
"Ngũ cốc, Nước lau sàn, Nước ngọt, Bột giặt, Nước lau sàn, Trà, Trà, Kem đánh răng, Trà, Nước ngọt, Giấy vệ sinh, Bánh ăn dặm, Sữa bột trẻ em, Sữa tắm",Thùy trang,Ho Chi Minh City,"747, Đường tỉnh 747, Phường Bình Cơ, Thành phố Hồ Chí Minh",20,3.7,department_store,11.1018807,106.7650804
"Kem đánh răng, Bánh kẹo, Bột nêm, Muối, Nước ngọt, Sữa chua, Nước ngọt, Bánh ăn dặm, Sữa chua, Nước suối",Trung dũng,Ho Chi Minh City,"a2, Đường tỉnh 747, Phường Bình Cơ, Thành phố Hồ Chí Minh",10,4.3,department_store,11.1097233,106.7582528
"Nước xả vải, Thực phẩm đóng hộp, Tã em bé, Trà, Gạo, Tã em bé, Muối, Nước ngọt, Ngũ cốc, Sữa chua, Sữa tắm, Dầu gội, Bánh ăn dặm",Hương trà,Ho Chi Minh City,"246/B, Cầu Bạch Đằng, Phường Tân Uyên, Thành phố Hồ Chí Minh",10,4.3,department_store,11.0537565,106.7858271
"Nước suối, Khăn giấy, Bánh ăn dặm, Sữa chua, Sữa bột, Nước suối, Muối, Nước lau sàn, Bột giặt, Nước lau sàn, Nước ngọt",Kim chi,Ho Chi Minh City,"747, Đường tỉnh 747, Phường Bình Cơ, Thành phố Hồ Chí Minh",15,3.8,department_store,11.1003844,106.7671898
"Mì gói, Khăn ướt, Sữa tươi, Thực phẩm đóng hộp, Sữa bột, Khăn ướt, Muối, Ngũ cốc, Sữa tắm, Sữa tươi, Đường, Bột giặt, Muối, Nước ngọt, Trà, Khăn ướt, Gạo",Phương linh,Ho Chi Minh City,"266, Đường tỉnh 747, Phường Bình Cơ, Thành phố Hồ Chí Minh",10,4.3,department_store,11.1078059,106.759954
"Bánh ăn dặm, Nước suối, Nước mắm, Bột nêm, Nước rửa chén, Mì gói, Sữa bột, Nước lau sàn, Bánh ăn dặm, Nước lau sàn, Sữa tươi, Ngũ cốc, Thực phẩm đóng hộp",Hải đăng,Ho Chi Minh City,"kp7, Đường tỉnh 747B, Phường Tân Uyên, Thành phố Hồ Chí Minh",10,4.1,department_store,11.0759751,106.7645358
"Sữa bột, Khăn ướt, Bánh kẹo, Sữa tươi, Muối, Nước xả vải, Nước rửa chén, Nước lau sàn, Dầu gội, Mì gói, Nước mắm, Đường",Phương thảo,Ho Chi Minh City,"quang vinh 3, Đường tỉnh 747, Phường Bình Cơ, Thành phố Hồ Chí Minh",10,4.3,department_store,11.0962681,106.7720282
"Sữa chua, Trà, Trà, Ngũ cốc, Mì gói, Nước mắm, Sữa bột trẻ em, Bánh kẹo, Nước suối, Gạo, Thực phẩm đóng hộp, Sữa tắm, Nước lau sàn",Mai trúc,Ho Chi Minh City,"747, Đường tỉnh 747, Phường Bình Cơ, Thành phố Hồ Chí Minh",20,3.5,department_store,11.0976362,106.7713521
"Nước lau sàn, Nước suối, Ngũ cốc, Muối, Bình sữa, Nước ngọt, Cà phê, Muối, Nước suối, Giấy vệ sinh, Sữa bột, Muối, Bánh kẹo, Sữa bột trẻ em, Nước mắm",Xuân mai,Ho Chi Minh City,"747, Đường tỉnh 747, Phường Bình Cơ, Thành phố Hồ Chí Minh, 75409",20,3.7,department_store,11.1180157,106.7500394
"Nước suối, Muối, Trà, Sữa tắm, Sữa tươi, Bột giặt, Bột nêm, Sữa tươi, Đường, Dầu gội",Cô lý,Ho Chi Minh City,"bình mỹ 1, Đường tỉnh 747, Phường Bình Cơ, Thành phố Hồ Chí Minh, 75409",10,4.2,department_store,11.1224397,106.746405
"Nước ngọt, Cà phê, Cà phê, Dầu gội, Dầu gội, Nước suối, Gạo, Dầu ăn, Bột nêm, Sữa chua, Mì gói, Muối, Sữa chua",Tuấn thành công,Ho Chi Minh City,"quang vinh 2, Đường tỉnh 747B, Phường Tân Uyên, Thành phố Hồ Chí Minh",15,3.7,department_store,11.0755226,106.7646202
"Bình sữa, Muối, Sữa bột trẻ em, Bánh kẹo, Mì gói, Đường, Nước rửa chén, Mì gói, Muối, Bánh kẹo, Bình sữa, Sữa bột trẻ em, Nước suối, Sữa bột, Mì gói, Ngũ cốc, Nước rửa chén, Bình sữa",Mạnh hưng,Ho Chi Minh City,"747, Đường tỉnh 747, Phường Bình Cơ, Thành phố Hồ Chí Minh",10,4.4,department_store,11.113244,106.7549016
"Nước suối, Bánh ăn dặm, Dầu ăn, Tã em bé, Khăn ướt, Bình sữa, Muối, Kem đánh răng, Khăn ướt, Bình sữa, Bánh kẹo, Sữa bột trẻ em, Ngũ cốc, Nước lau sàn, Sữa tắm, Cà phê, Bánh ăn dặm, Nước xả vải, Bánh ăn dặm",Gia bảo,Ho Chi Minh City,"bình mỹ 1, Đường tỉnh 747, Phường Bình Cơ, Thành phố Hồ Chí Minh, 75409",15,4.4,department_store,11.1242135,106.7458393
"Dầu gội, Dầu gội, Sữa bột, Dầu ăn, Bình sữa, Nước xả vải, Sữa tươi, Nước xả vải, Cà phê, Nước lau sàn, Kem đánh răng, Kem đánh răng, Mì gói, Sữa tươi, Bánh kẹo, Sữa tắm",Mỹ hằng,Ho Chi Minh City,"10, Đường số 13, Phường Tân Uyên, Thành phố Hồ Chí Minh",15,4.3,department_store,11.0589936,106.795024
"Sữa bột, Đường, Tã em bé, Bột giặt, Sữa tắm, Dầu ăn, Giấy vệ sinh, Muối, Thực phẩm đóng hộp, Nước xả vải, Sữa tắm, Sữa tươi, Nước suối, Muối, Nước rửa chén, Đường, Nước ngọt, Khăn ướt",Hương hòa,Ho Chi Minh City,"kp3, Đường số 3, Phường Tân Uyên, Thành phố Hồ Chí Minh",10,4.3,department_store,11.0605688,106.7973283
"Dầu ăn, Sữa tươi, Nước lau sàn, Sữa tươi, Dầu gội, Thực phẩm đóng hộp, Gạo, Sữa tươi, Khăn giấy, Sữa bột, Nước xả vải, Khăn ướt, Cà phê, Sữa chua, Nước ngọt",Kim ngân 2,Ho Chi Minh City,"quang vinh 1, Đường tỉnh 746, Phường Tân Hiệp, Thành phố Hồ Chí Minh",20,4.2,department_store,11.0492297,106.7512091
"Gạo, Nước suối, Nước suối, Sữa tươi, Bánh kẹo, Nước rửa chén, Nước xả vải, Nước mắm, Giấy vệ sinh, Gạo, Nước xả vải, Nước rửa chén, Bột nêm, Trà, Đường, Sữa tắm, Giấy vệ sinh, Thực phẩm đóng hộp",Song phú,Ho Chi Minh City,"01, Đường tỉnh 746, Phường Tân Hiệp, Thành phố Hồ Chí Minh",20,3.7,department_store,11.0484505,106.752371
"Sữa tắm, Sữa bột, Mì gói, Muối, Ngũ cốc, Bột nêm, Bánh kẹo, Thực phẩm đóng hộp, Gạo, Đường, Thực phẩm đóng hộp, Thực phẩm đóng hộp, Sữa tắm",Minh thư,Ho Chi Minh City,"quang vinh 3, Đường tỉnh 747, Phường Bình Cơ, Thành phố Hồ Chí Minh",15,3.6,department_store,11.0960189,106.7715531
"Sữa tắm, Dầu gội, Nước ngọt, Nước xả vải, Nước rửa chén, Sữa bột, Nước suối, Bột nêm, Sữa tươi, Thực phẩm đóng hộp, Tã em bé, Dầu ăn, Cà phê, Nước rửa chén, Cà phê, Bột giặt, Muối, Mì gói, Khăn ướt",Milan,Ho Chi Minh City,"5, Đường tỉnh 747, Phường Tân Uyên, Thành phố Hồ Chí Minh",20,3.6,department_store,11.0609902,106.7974205
"Mì gói, Nước suối, Nước ngọt, Giấy vệ sinh, Bánh ăn dặm, Bột nêm, Bột nêm, Sữa tươi, Trà, Giấy vệ sinh, Trà, Bột nêm, Sữa tươi",hoàng hưng,Ho Chi Minh City,"tổ 3.uyên hưng, Đường tỉnh 747, Phường Tân Uyên, Thành phố Hồ Chí Minh",15,3.9,department_store,11.0768993,106.7883941
"Bánh ăn dặm, Trà, Nước ngọt, Giấy vệ sinh, Đường, Ngũ cốc, Nước mắm, Trà, Nước lau sàn, Sữa chua, Nước ngọt, Sữa bột trẻ em, Tã em bé",Phúc khang,Ho Chi Minh City,"kp7, Đường tỉnh 747, Phường Tân Uyên, Thành phố Hồ Chí Minh",15,3.7,department_store,11.0711893,106.7905998
"Muối, Tã em bé, Ngũ cốc, Bột nêm, Sữa chua, Cà phê, Bột nêm, Nước rửa chén, Nước suối, Cà phê, Dầu ăn, Nước xả vải, Cà phê, Nước suối, Khăn ướt, Sữa tươi, Kem đánh răng",khánh hiền,Ho Chi Minh City,"kp 3.uyên hưng, Đường tỉnh 747, Phường Tân Uyên, Thành phố Hồ Chí Minh",15,3.5,department_store,11.0821616,106.7812467
"Trà, Sữa chua, Bánh ăn dặm, Sữa tắm, Bột giặt, Sữa bột, Bột nêm, Trà, Nước ngọt, Bánh kẹo, Bột giặt, Muối, Sữa chua, Nước suối, Nước rửa chén, Sữa bột, Sữa bột trẻ em, Dầu gội, Bánh ăn dặm",phương ngân,Ho Chi Minh City,"59, Vĩnh Lợi, Phường Tân Hiệp, Thành phố Hồ Chí Minh",20,4.4,department_store,11.0678328,106.755726
"Tã em bé, Bột giặt, Nước suối, Tã em bé, Nước xả vải, Cà phê, Cà phê, Bánh ăn dặm, Gạo, Ngũ cốc, Ngũ cốc, Bột giặt, Sữa bột trẻ em, Sữa bột trẻ em, Bình sữa, Dầu ăn, Gạo",Tùng lâm,Ho Chi Minh City,"my phuoc 3, NE8, Phường Thới Hòa, Thành phố Hồ Chí Minh, 75900",15,4,department_store,11.0971594,106.6369239
"Ngũ cốc, Gạo, Tã em bé, Cà phê, Sữa tắm, Sữa bột trẻ em, Đường, Bột nêm, Nước mắm, Khăn ướt, Muối, Bình sữa, Cà phê",Ngoc hạnh,Ho Chi Minh City,"dj10, DE3, Phường Thới Hòa, Thành phố Hồ Chí Minh, 75900",10,3.6,department_store,11.1005267,106.6402636
"Giấy vệ sinh, Sữa chua, Dầu ăn, Kem đánh răng, Giấy vệ sinh, Sữa chua, Khăn ướt, Đường, Bột nêm, Bánh ăn dặm, Dầu ăn",hùng trang,Ho Chi Minh City,"mỹ phước 3, Đường DJ9, Phường Thới Hòa, Thành phố Hồ Chí Minh, 75900",10,4.4,department_store,11.10031,106.6401333
"Gạo, Nước suối, Nước xả vải, Bánh ăn dặm, Sữa chua, Sữa chua, Khăn giấy, Mì gói, Mì gói, Dầu gội, Mì gói, Mì gói",hải đăng,Ho Chi Minh City,"143.bến cát, Đường DJ10, Phường Thới Hòa, Thành phố Hồ Chí Minh, 75900",10,4,department_store,11.0981355,106.6407965
"Nước xả vải, Đường, Trà, Bánh ăn dặm, Đường, Ngũ cốc, Trà, Tã em bé, Giấy vệ sinh, Tã em bé, Khăn giấy, Khăn ướt, Bột nêm, Trà, Tã em bé, Nước xả vải",Ngọc linh,Ho Chi Minh City,"mỹ phước 1, Đường N5, Phường Thới Hòa, Thành phố Hồ Chí Minh, 75911",20,4.3,department_store,11.1229563,106.6040623
"Khăn giấy, Kem đánh răng, Tã em bé, Sữa tươi, Cà phê, Kem đánh răng, Bột giặt, Gạo, Tã em bé, Đường, Bột nêm",ngọc bich,Ho Chi Minh City,"mỹ phuoc 1, Đường D14, Phường Thới Hòa, Thành phố Hồ Chí Minh, 75911",10,3.8,department_store,11.1227256,106.6046122
"Tã em bé, Giấy vệ sinh, Trà, Bánh kẹo, Tã em bé, Nước ngọt, Bánh ăn dặm, Nước rửa chén, Bình sữa, Nước xả vải, Nước mắm, Nước mắm, Bột nêm, Mì gói, Khăn giấy, Nước xả vải, Sữa bột, Sữa bột",cua hang sua,Ho Chi Minh City,"mỹ phuoc 1, Đường D14, Phường Thới Hòa, Thành phố Hồ Chí Minh, 75911",15,3.9,department_store,11.1227179,106.6060274
"Sữa tươi, Sữa bột trẻ em, Cà phê, Kem đánh răng, Mì gói, Bột giặt, Bánh kẹo, Sữa tươi, Nước ngọt, Đường",phuoc nhu,Ho Chi Minh City,"my phuoc 1, Đường D13, Phường Thới Hòa, Thành phố Hồ Chí Minh, 75911",15,3.7,department_store,11.1234715,106.6061904
"Bật lửa, Bút bi, Bàn chải đánh răng, Mì gói, Cốc nhựa, Kẹo, Dao cạo râu, Muỗng nhựa, Bánh quy, Bao rác, Trà đóng chai, Bánh bao mini, Sữa chua uống, Nước ngọt, Bánh quy, Thịt hộp, Túi nylon, Pin sạc",minh phong,Ho Chi Minh City,"01, Trương Văn Bang, Phường Tam Thắng, Thành phố Hồ Chí Minh, 76666",15,4.4,convenience,10.3643655,107.0836562
"Giấy vệ sinh, Ngũ cốc, Mì gói, Sữa tắm, Dầu ăn, Bột giặt, Muối, Gạo, Nước xả vải, Dầu gội, Cà phê",tinh,Ho Chi Minh City,"8/7, Trần Bình Trọng, Phường Tam Thắng, Thành phố Hồ Chí Minh, 76666",20,4.2,department_store,10.3591385,107.0949382
"Túi nylon, Bật lửa, Khẩu trang y tế, Khăn giấy, Ô dù gấp, Sữa chua uống, Bàn chải đánh răng, Ô dù gấp, Khoai tây chiên, Bật lửa, Nước tăng lực, Mì ly, Kem đánh răng, Kem đánh răng",cô mai,Ho Chi Minh City,"53, Phạm Hữu Chí, Thành phố Hồ Chí Minh, 78107",10,4.1,convenience,10.4810879,107.2070085
"Bánh kẹo, Kem đánh răng, Nước ngọt, Nước mắm, Tã em bé, Sữa bột trẻ em, Dầu gội, Nước ngọt, Dầu gội, Ngũ cốc",van tài,Ho Chi Minh City,"145, Võ Thị Sáu, Thành phố Hồ Chí Minh, 78107",10,4.4,department_store,10.483924,107.2043935
"Ô dù gấp, Khăn ướt, Bánh snack, Bút bi, Ô dù gấp, Khăn giấy, Kem đánh răng, Bánh bao mini, Dao cạo râu, Gối cổ du lịch, Bánh quy, Khăn ướt, Bánh bao mini, Bao rác",thu,Ho Chi Minh City,"117, Võ Thị Sáu, Thành phố Hồ Chí Minh, 78107",15,4.4,convenience,10.4839332,107.2034588
"Sữa tươi, Kem đánh răng, Sữa bột trẻ em, Bột giặt, Cà phê, Trà, Cà phê, Trà, Giấy vệ sinh, Nước rửa chén, Tã em bé, Nước suối, Dầu gội, Sữa chua, Nước rửa chén, Đường, Sữa tươi, Nước rửa chén, Thực phẩm đóng hộp, Bánh ăn dặm",nhân trí,Ho Chi Minh City,"92, Võ Thị Sáu, Thành phố Hồ Chí Minh, 78107",15,4.4,department_store,10.4833255,107.2076821
"Lăn khử mùi, Bút bi, Bút bi, Dao cạo râu, Muỗng nhựa, Sữa chua uống, Sữa chua uống, Nước tăng lực, Dây sạc điện thoại, Bánh quy, Nước suối",thao ngoc,Ho Chi Minh City,"13, Bùi Công Minh, Thành phố Hồ Chí Minh, 78107",15,3.9,convenience,10.4844453,107.211865
"Găng tay nilon, Cà phê lon, Khẩu trang y tế, Kẹo, Sổ tay nhỏ, Kẹo, Bánh quy, Mì gói, Dầu gội, Gối cổ du lịch, Cốc nhựa, Khăn giấy, Bánh mì sandwich, Nước tăng lực, Túi nylon, Khẩu trang y tế, Bánh quy, Cà phê lon, Bánh bao mini, Gối cổ du lịch",chị ngọc,Ho Chi Minh City,"67, Bùi Công Minh, Thành phố Hồ Chí Minh, 78107",20,4.2,convenience,10.4810464,107.2118708
"Trà đóng chai, Khăn giấy, Bánh bao mini, Dầu gội, Khoai tây chiên, Sổ tay nhỏ, Sữa chua uống, Dây sạc điện thoại, Khăn giấy, Dây sạc điện thoại, Sổ tay nhỏ, Bật lửa, Khăn giấy, Sữa hộp, Túi nylon, Bao rác, Bàn chải đánh răng, Muỗng nhựa",ut nam,Ho Chi Minh City,"96, Bùi Công Minh, Thành phố Hồ Chí Minh, 78107",20,3.7,convenience,10.4799516,107.2119429
"Khăn giấy, Muỗng nhựa, Ô dù gấp, Chai nước, Dây sạc điện thoại, Túi nylon, Sổ tay nhỏ, Muỗng nhựa, Nước suối, Bóng đèn LED mini, Mì gói, Sổ tay nhỏ, Dây sạc điện thoại, Pin AA, Muỗng nhựa, Trà đóng chai, Ô dù gấp",tạp hoá 196,Ho Chi Minh City,"196, Mạc Thanh Đạm, Thành phố Hồ Chí Minh, 78107",10,4.3,convenience,10.4872698,107.2125824
"Gạo, Kem đánh răng, Nước lau sàn, Nước rửa chén, Sữa bột, Nước xả vải, Bánh kẹo, Sữa bột, Khăn ướt, Mì gói, Khăn giấy",ngọc tuyền,Ho Chi Minh City,"14, Mạc Thanh Đạm, Thành phố Hồ Chí Minh, 78107",10,4,department_store,10.4853559,107.2117931
"Dầu gội, Túi nylon, Sữa chua uống, Nước suối, Bút bi, Bánh bao mini, Nước tăng lực, Bao rác, Pin sạc, Nước suối",minh tam,Ho Chi Minh City,"337, Võ Thị Sáu, Thành phố Hồ Chí Minh, 78107",10,4.2,convenience,10.4847977,107.2135135
"Khăn ướt, Sữa chua uống, Bút bi, Mì ly, Kem đánh răng, Chai nước, Kem đánh răng, Chai nước, Bút bi, Kẹo cao su, Trà đóng chai, Pin AA, Dầu gội, Cốc nhựa, Cốc nhựa, Bàn chải đánh răng, Khăn ướt, Cà phê lon, Muỗng nhựa",minh,Ho Chi Minh City,"Phan Đăng Lưu, Thành phố Hồ Chí Minh",15,4.4,convenience,10.4817634,107.2228221
"Bột giặt, Bình sữa, Sữa chua, Dầu ăn, Khăn ướt, Bột giặt, Bột nêm, Nước ngọt, Giấy vệ sinh, Bột nêm, Thực phẩm đóng hộp, Nước rửa chén, Giấy vệ sinh, Nước mắm",thanh quang,Ho Chi Minh City,"Đường số 9, Thành phố Hồ Chí Minh, 78107",20,4.1,department_store,10.4922281,107.2159397
"Nước mắm, Giấy vệ sinh, Bột giặt, Mì gói, Dầu gội, Sữa tươi, Bánh kẹo, Dầu ăn, Đường, Nước ngọt, Nước rửa chén, Đường, Mì gói, Dầu ăn, Tã em bé, Thực phẩm đóng hộp, Nước suối, Sữa bột",linh,Ho Chi Minh City,"Phan Đăng Lưu, Thành phố Hồ Chí Minh",15,4.3,department_store,10.4845931,107.2244334
"Cà phê, Tã em bé, Dầu gội, Nước xả vải, Thực phẩm đóng hộp, Giấy vệ sinh, Muối, Đường, Khăn giấy, Nước lau sàn, Nước rửa chén, Nước ngọt, Muối, Khăn ướt, Sữa bột trẻ em, Nước mắm, Sữa chua, Khăn giấy, Nước lau sàn, Giấy vệ sinh",thảo dung,Ho Chi Minh City,"Đường D16, Thành phố Hồ Chí Minh, 78107",20,4.4,department_store,10.4791957,107.2212383
"Kẹo cao su, Khăn giấy, Mì ly, Mì gói, Sổ tay nhỏ, Ô dù gấp, Dao cạo râu, Khăn giấy, Khẩu trang y tế, Pin AA, Sổ tay nhỏ, Cốc nhựa, Ô dù gấp, Bánh snack, Muỗng nhựa, Khăn giấy, Lăn khử mùi, Chai nước",cô dung,Ho Chi Minh City,"54l, Phạm Hữu Chí, Thành phố Hồ Chí Minh, 78107",15,3.8,convenience,10.4786417,107.2057091
"Thực phẩm đóng hộp, Tã em bé, Đường, Sữa tươi, Nước suối, Gạo, Muối, Bột giặt, Đường, Muối, Nước suối, Nước ngọt, Tã em bé",Phúc,Ho Chi Minh City,"phước vĩnh an 4, Tỉnh lộ 8, Xã Củ Chi, Thành phố Hồ Chí Minh, 75500",20,3.5,department_store,10.981433,106.5092001
"Trà, Muối, Bánh kẹo, Nước rửa chén, Bột nêm, Nước suối, Khăn giấy, Tã em bé, Cà phê, Gạo, Bánh ăn dặm, Bánh ăn dặm, Bột nêm, Khăn giấy, Khăn giấy, Khăn giấy, Gạo, Bột nêm, Sữa tắm, Nước suối",Mimh châu,Ho Chi Minh City,"278, Tỉnh lộ 8, Xã Tân An Hội, Thành phố Hồ Chí Minh, 75500",20,4,department_store,10.9755884,106.4991667
"Sữa chua uống, Ô dù gấp, Dao cạo râu, Kem đánh răng, Bánh quy, Túi nylon, Chai nước, Kem đánh răng, Gối cổ du lịch, Găng tay nilon, Lăn khử mùi, Mì ly, Nước tăng lực, Muỗng nhựa, Bút bi",tuyết,Ho Chi Minh City,"tổ 6, Phước Tỉnh, Thành phố Hồ Chí Minh",20,3.6,convenience,10.4113379,107.195978
"Găng tay nilon, Xà phòng tắm, Nước suối, Bánh snack, Mì gói, Bật lửa, Muỗng nhựa, Khoai tây chiên, Bánh mì sandwich, Khăn ướt, Bóng đèn LED mini, Dây sạc điện thoại, Bao rác",chưởng,Ho Chi Minh City,"tổ 4, Phước Tỉnh, Thành phố Hồ Chí Minh",15,3.9,convenience,10.4022934,107.1822239
"Khẩu trang y tế, Dây sạc điện thoại, Bánh snack, Khoai tây chiên, Ô dù gấp, Khoai tây chiên, Thịt hộp, Bánh mì sandwich, Thịt hộp, Sổ tay nhỏ",hoà,Ho Chi Minh City,"4, Đường Võ Thị Sáu, Thành phố Hồ Chí Minh",15,4.4,convenience,10.3968013,107.2285487
"Thịt hộp, Nước ngọt, Khoai tây chiên, Nước ngọt, Bánh mì sandwich, Sữa chua uống, Kẹo, Dao cạo râu, Bao rác, Lăn khử mùi, Khăn giấy, Bàn chải đánh răng, Dây sạc điện thoại, Túi nylon, Dao cạo râu",tạp hoá 58,Ho Chi Minh City,"58, Phước Tỉnh, Thành phố Hồ Chí Minh",20,3.6,convenience,10.4008291,107.18424
"Dây sạc điện thoại, Túi nylon, Nước tăng lực, Cà phê lon, Khăn ướt, Khăn giấy, Bánh mì sandwich, Bánh snack, Pin AA, Bánh mì sandwich, Bật lửa, Sữa hộp, Túi nylon, Kẹo cao su, Bóng đèn LED mini, Túi nylon",mai hoàng,Ho Chi Minh City,"tổ 3, Phước Tỉnh, Thành phố Hồ Chí Minh",15,3.7,convenience,10.4030175,107.1846456
"Nước ngọt, Thực phẩm đóng hộp, Bột nêm, Sữa chua, Sữa tắm, Bánh kẹo, Sữa bột, Nước xả vải, Bột giặt, Mì gói, Dầu gội, Sữa tắm, Dầu ăn, Khăn giấy, Nước xả vải, Cà phê, Gạo",chợ xanh,Ho Chi Minh City,"54, Phước Tỉnh, Thành phố Hồ Chí Minh",10,4.1,department_store,10.4025542,107.1837964
"Nước suối, Bao rác, Thịt hộp, Bật lửa, Nước tăng lực, Dầu gội, Sữa hộp, Sữa chua uống, Nước ngọt, Pin AA, Kem đánh răng, Dầu gội, Kem đánh răng, Găng tay nilon, Bút bi",hiếu hà,Ho Chi Minh City,"tổ 3, Phước Tỉnh, Thành phố Hồ Chí Minh",10,4.3,convenience,10.4102289,107.1944845
"Kẹo cao su, Kẹo, Bánh mì sandwich, Cà phê lon, Muỗng nhựa, Lăn khử mùi, Cốc nhựa, Khăn ướt, Bánh snack, Bánh quy, Nước ngọt",tích hiền,Ho Chi Minh City,"2, Đường Điện Biên Phủ, Thành phố Hồ Chí Minh",20,4.5,convenience,10.4138649,107.2041619
"Khẩu trang y tế, Cà phê lon, Bánh snack, Mì ly, Bánh mì sandwich, Xà phòng tắm, Kem đánh răng, Xà phòng tắm, Cà phê lon, Khẩu trang y tế, Bàn chải đánh răng, Bánh snack",ngọc hân,Ho Chi Minh City,"11, Đường Điện Biên Phủ, Thành phố Hồ Chí Minh",15,4.1,convenience,10.4150161,107.209904
"Nước xả vải, Sữa bột, Trà, Nước xả vải, Cà phê, Khăn ướt, Nước mắm, Dầu gội, Dầu gội, Cà phê, Trà, Thực phẩm đóng hộp, Nước suối, Bột nêm, Bột nêm, Nước ngọt, Khăn giấy, Sữa chua, Trà, Nước suối",sơn hiền,Ho Chi Minh City,"5, Đường Võ Thị Sáu, Thành phố Hồ Chí Minh",10,4,department_store,10.4136919,107.2191795
"Khăn ướt, Khẩu trang y tế, Bánh mì sandwich, Ô dù gấp, Gối cổ du lịch, Túi nylon, Khoai tây chiên, Thịt hộp, Cốc nhựa, Bật lửa, Kem đánh răng, Xà phòng tắm, Xà phòng tắm, Dầu gội, Cà phê lon",hạnh,Ho Chi Minh City,"2, Đường Võ Thị Sáu, Thành phố Hồ Chí Minh",15,3.7,convenience,10.4003614,107.2256926
"Mì ly, Bật lửa, Gối cổ du lịch, Găng tay nilon, Mì ly, Bóng đèn LED mini, Cà phê lon, Dao cạo râu, Sữa hộp, Mì gói, Mì ly, Bánh bao mini",bích tuyền,Ho Chi Minh City,"11 tổ 9, Đường Trần Hưng Đạo, Thành phố Hồ Chí Minh",15,3.8,convenience,10.4080313,107.2212473
"Dây sạc điện thoại, Nước tăng lực, Khẩu trang y tế, Mì gói, Dây sạc điện thoại, Cà phê lon, Bao rác, Dao cạo râu, Xà phòng tắm, Pin sạc, Pin sạc, Bánh snack, Xà phòng tắm, Trà đóng chai, Bóng đèn LED mini",thanh quyên,Ho Chi Minh City,"tổ 12, Đường Võ Thị Sáu, Thành phố Hồ Chí Minh",20,3.5,convenience,10.4071378,107.2211069
"Nước ngọt, Trà, Sữa tắm, Bình sữa, Mì gói, Mì gói, Nước suối, Cà phê, Trà, Bình sữa, Dầu gội, Thực phẩm đóng hộp, Dầu gội, Nước rửa chén, Nước lau sàn, Sữa bột trẻ em, Nước lau sàn, Sữa tươi, Mì gói",hồng duyên,Ho Chi Minh City,"tổ 12, Đường Võ Thị Sáu, Thành phố Hồ Chí Minh",10,4.3,department_store,10.4069989,107.2214273
"Bật lửa, Khăn ướt, Xà phòng tắm, Kem đánh răng, Sữa hộp, Xà phòng tắm, Bóng đèn LED mini, Khăn ướt, Sữa hộp, Xà phòng tắm, Bàn chải đánh răng, Bao rác, Dây sạc điện thoại, Gối cổ du lịch, Dầu gội, Gối cổ du lịch, Túi nylon, Khăn giấy, Kẹo",thanh hiền,Ho Chi Minh City,"4/8, Đường Võ Thị Sáu, Thành phố Hồ Chí Minh",20,3.7,convenience,10.3998486,107.2260176
"Dao cạo râu, Bánh bao mini, Dây sạc điện thoại, Kẹo, Chai nước, Bánh quy, Bánh mì sandwich, Trà đóng chai, Găng tay nilon, Muỗng nhựa, Xà phòng tắm",phượng,Ho Chi Minh City,"25/8, Đường Võ Thị Sáu, Thành phố Hồ Chí Minh",20,3.7,convenience,10.3971015,107.2287497
"Khăn ướt, Bóng đèn LED mini, Bàn chải đánh răng, Dao cạo râu, Dây sạc điện thoại, Sữa hộp, Mì ly, Thịt hộp, Khoai tây chiên, Mì ly, Khăn ướt, Mì ly, Gối cổ du lịch, Sữa chua uống, Cốc nhựa, Dao cạo râu, Khoai tây chiên, Sữa chua uống, Xà phòng tắm",loan,Ho Chi Minh City,"Công Viên, Thành phố Hồ Chí Minh",15,3.8,convenience,10.4886157,107.2701063
"Sổ tay nhỏ, Mì ly, Bánh bao mini, Trà đóng chai, Khăn giấy, Khăn ướt, Nước suối, Chai nước, Kẹo cao su, Gối cổ du lịch, Nước ngọt, Pin AA, Kẹo, Bút bi, Bánh bao mini, Nước ngọt, Găng tay nilon, Bút bi, Cà phê lon, Bánh snack",thanh,Ho Chi Minh City,"Mai Chí Thành, Thành phố Hồ Chí Minh",20,3.5,convenience,10.4908359,107.2685936
"Bút bi, Bánh bao mini, Khăn ướt, Lăn khử mùi, Kẹo, Bánh mì sandwich, Khăn giấy, Sổ tay nhỏ, Pin AA, Dầu gội, Bánh bao mini, Bánh bao mini",phượng vĩ,Ho Chi Minh City,"47, Đường An Nhứt - Long Tân, Thành phố Hồ Chí Minh",10,4.4,convenience,10.4864522,107.2451962
"Sữa chua uống, Pin AA, Dây sạc điện thoại, Kẹo, Bánh snack, Bật lửa, Nước tăng lực, Nước suối, Bật lửa, Găng tay nilon, Bao rác",bạch linh,Ho Chi Minh City,"52, Nguyễn Kiệm, Thành phố Hồ Chí Minh",20,4.5,convenience,10.4949315,107.2689477
"Bánh bao mini, Dao cạo râu, Cốc nhựa, Lăn khử mùi, Muỗng nhựa, Dầu gội, Sữa hộp, Muỗng nhựa, Nước tăng lực, Kem đánh răng, Sữa chua uống, Sổ tay nhỏ, Khăn ướt, Nước suối, Nước tăng lực, Kẹo cao su, Bánh quy, Sổ tay nhỏ",ngọc bích,Ho Chi Minh City,"Trịnh Hoài Đức, Thành phố Hồ Chí Minh",20,3.6,convenience,10.4744575,107.2691714
"Cà phê lon, Ô dù gấp, Găng tay nilon, Kem đánh răng, Ô dù gấp, Găng tay nilon, Bao rác, Thịt hộp, Dây sạc điện thoại, Khoai tây chiên, Bánh mì sandwich, Dây sạc điện thoại, Gối cổ du lịch, Dầu gội, Bánh mì sandwich, Muỗng nhựa, Bóng đèn LED mini, Găng tay nilon, Dao cạo râu, Trà đóng chai",tư lộ,Ho Chi Minh City,"52, Châu Văn Tiếp, Thành phố Hồ Chí Minh",15,3.5,convenience,10.474968,107.2715684
"Nước tăng lực, Dao cạo râu, Ô dù gấp, Kem đánh răng, Bóng đèn LED mini, Nước suối, Dây sạc điện thoại, Khẩu trang y tế, Trà đóng chai, Bánh bao mini",hạnh,Ho Chi Minh City,"Võ Thị Sáu, Thành phố Hồ Chí Minh",10,4.2,convenience,10.4814773,107.2708876
"Cà phê, Bình sữa, Đường, Trà, Thực phẩm đóng hộp, Muối, Dầu gội, Sữa bột trẻ em, Sữa chua, Sữa bột",cẩm loan,Ho Chi Minh City,"Võ Thị Sáu, Thành phố Hồ Chí Minh",10,3.7,department_store,10.4759403,107.2712054
"Nước tăng lực, Bánh quy, Pin sạc, Găng tay nilon, Túi nylon, Lăn khử mùi, Kẹo, Sổ tay nhỏ, Sổ tay nhỏ, Dao cạo râu, Khẩu trang y tế, Khoai tây chiên, Bàn chải đánh răng, Cốc nhựa, Khăn ướt, Nước ngọt, Gối cổ du lịch, Găng tay nilon, Găng tay nilon, Bóng đèn LED mini",loan,Ho Chi Minh City,"Quốc lộ 56, Phường Tam Long, Thành phố Hồ Chí Minh",15,3.5,convenience,10.5441836,107.2070646
"Pin sạc, Cà phê lon, Ô dù gấp, Kẹo cao su, Túi nylon, Nước tăng lực, Mì ly, Cà phê lon, Pin sạc, Cà phê lon, Nước suối, Bao rác, Nước tăng lực, Dầu gội, Găng tay nilon, Kem đánh răng",huỳnh tấn,Ho Chi Minh City,"Quốc lộ 56, Phường Tam Long, Thành phố Hồ Chí Minh",10,4,convenience,10.5469549,107.2080323
"Kẹo cao su, Bàn chải đánh răng, Khẩu trang y tế, Sữa hộp, Dây sạc điện thoại, Bàn chải đánh răng, Dao cạo râu, Dây sạc điện thoại, Dao cạo râu, Khoai tây chiên, Bánh quy, Lăn khử mùi, Kem đánh răng, Bàn chải đánh răng, Bánh snack",oanh,Ho Chi Minh City,"Quốc lộ 56, Xã Nghĩa Thành, Thành phố Hồ Chí Minh",20,3.8,convenience,10.5757742,107.2245982
"Pin AA, Kem đánh răng, Bóng đèn LED mini, Cà phê lon, Thịt hộp, Trà đóng chai, Bánh bao mini, Bao rác, Sữa hộp, Kẹo cao su",thanh tâm,Ho Chi Minh City,"Quốc lộ 56, Phường Tam Long, Thành phố Hồ Chí Minh",15,3.8,convenience,10.541182,107.2054163
"Nước lau sàn, Sữa bột trẻ em, Trà, Ngũ cốc, Nước xả vải, Nước rửa chén, Trà, Cà phê, Nước lau sàn, Sữa tươi, Ngũ cốc, Đường, Bột nêm",minh ánh,Ho Chi Minh City,"72, Hùng Vương, Thành phố Hồ Chí Minh",20,3.5,department_store,10.637891,107.2428574
"Túi nylon, Sổ tay nhỏ, Trà đóng chai, Dây sạc điện thoại, Ô dù gấp, Bật lửa, Kem đánh răng, Bánh mì sandwich, Bút bi, Mì gói, Kem đánh răng, Kem đánh răng, Khẩu trang y tế, Dầu gội, Bánh bao mini, Muỗng nhựa, Khoai tây chiên, Cà phê lon, Pin sạc",chú đồng,Ho Chi Minh City,"14, Hùng Vương, Thành phố Hồ Chí Minh",10,3.8,convenience,10.6338328,107.2417631
"Khoai tây chiên, Khoai tây chiên, Bao rác, Kẹo, Bao rác, Bao rác, Chai nước, Muỗng nhựa, Dao cạo râu, Bánh bao mini, Bàn chải đánh răng, Bao rác, Bàn chải đánh răng, Bánh mì sandwich, Kẹo cao su, Kem đánh răng, Kem đánh răng",Tạp Hoá Cô Ánh,Ho Chi Minh City,"40, Hùng Vương, Thành phố Hồ Chí Minh",15,4.4,convenience,10.634911,107.2429317
"Bàn chải đánh răng, Lăn khử mùi, Khăn giấy, Kem đánh răng, Bàn chải đánh răng, Pin sạc, Ô dù gấp, Thịt hộp, Nước ngọt, Khăn ướt, Bật lửa, Chai nước, Lăn khử mùi, Bánh mì sandwich, Kẹo, Găng tay nilon",cô hai,Ho Chi Minh City,"Quốc lộ 56, Thành phố Hồ Chí Minh",10,4.3,convenience,10.6142563,107.2363254
"Túi nylon, Bàn chải đánh răng, Thịt hộp, Pin AA, Lăn khử mùi, Pin sạc, Túi nylon, Chai nước, Thịt hộp, Ô dù gấp, Nước tăng lực, Mì gói, Bánh bao mini, Cà phê lon, Bánh mì sandwich",thành tài,Ho Chi Minh City,"Quốc lộ 56, Xã Nghĩa Thành, Thành phố Hồ Chí Minh",20,3.6,convenience,10.5826444,107.2277061
"Kem đánh răng, Kẹo, Sổ tay nhỏ, Bánh snack, Gối cổ du lịch, Sữa hộp, Bánh snack, Muỗng nhựa, Dây sạc điện thoại, Bánh snack, Nước suối",bảo nhi,Ho Chi Minh City,"Quốc lộ 56, Thành phố Hồ Chí Minh",10,3.5,convenience,10.6040085,107.2351629
"Khoai tây chiên, Sữa hộp, Trà đóng chai, Khẩu trang y tế, Sổ tay nhỏ, Mì ly, Nước suối, Bánh quy, Dây sạc điện thoại, Kem đánh răng, Xà phòng tắm, Khoai tây chiên, Găng tay nilon, Nước ngọt, Nước tăng lực, Cốc nhựa, Bật lửa, Bút bi, Trà đóng chai, Nước suối",phú quý,Ho Chi Minh City,"ql 56, Quốc lộ 56, Thành phố Hồ Chí Minh",10,4.2,convenience,10.6094968,107.2365351
"Sữa tươi, Nước xả vải, Dầu ăn, Nước rửa chén, Nước suối, Giấy vệ sinh, Khăn giấy, Khăn giấy, Khăn giấy, Dầu gội, Muối, Sữa tươi",Tạp Hoá Xuân Trường,Ho Chi Minh City,"5, Lý Tế Xuyên, Phường Hiệp Bình, Thủ Đức, 75350",10,4.1,department_store,10.8538332,106.7485078
"Dầu ăn, Dầu ăn, Cà phê, Trà, Đường, Cà phê, Dầu ăn, Dầu gội, Dầu ăn, Sữa tươi, Sữa bột",nhân nghĩa,Ho Chi Minh City,"149, Hùng Vương, Thành phố Hồ Chí Minh",20,3.7,department_store,10.6400001,107.2436507
"Bánh quy, Pin sạc, Kẹo cao su, Dao cạo râu, Khăn giấy, Cà phê lon, Chai nước, Mì gói, Pin AA, Khẩu trang y tế, Mì gói, Pin AA",phương linh,Ho Chi Minh City,"109, Hùng Vương, Thành phố Hồ Chí Minh",10,3.8,convenience,10.6382169,107.2439205
"Bánh bao mini, Xà phòng tắm, Nước ngọt, Nước ngọt, Dầu gội, Sữa hộp, Bàn chải đánh răng, Túi nylon, Túi nylon, Bút bi, Găng tay nilon, Pin AA, Bánh snack, Muỗng nhựa, Lăn khử mùi, Khăn ướt",vinh thuỷ,Ho Chi Minh City,"Quốc lộ 56, Thành phố Hồ Chí Minh",15,3.9,convenience,10.5928449,107.2357883
"Dầu gội, Sữa bột trẻ em, Nước suối, Bột nêm, Khăn giấy, Muối, Nước suối, Tã em bé, Sữa tắm, Bình sữa, Thực phẩm đóng hộp, Thực phẩm đóng hộp, Khăn ướt, Kem đánh răng, Khăn ướt, Sữa tươi",tuyết,Ho Chi Minh City,"Quốc lộ 56, Thành phố Hồ Chí Minh",10,3.6,department_store,10.5849184,107.2286297
"Ngũ cốc, Nước rửa chén, Nước mắm, Nước suối, Sữa tươi, Nước suối, Bình sữa, Sữa tươi, Bánh kẹo, Nước mắm, Sữa tươi, Bột nêm, Tã em bé, Thực phẩm đóng hộp, Dầu ăn, Bình sữa, Sữa tắm",hoa cúc,Ho Chi Minh City,"118, Hùng Vương, Thành phố Hồ Chí Minh",20,3.7,department_store,10.6413275,107.2439877
"Thịt hộp, Chai nước, Nước suối, Lăn khử mùi, Mì ly, Trà đóng chai, Mì gói, Bánh quy, Dây sạc điện thoại, Pin sạc, Thịt hộp",hồng phấn,Ho Chi Minh City,"181, Hùng Vương, Thành phố Hồ Chí Minh",20,3.7,convenience,10.6422836,107.2448784
"Bật lửa, Cà phê lon, Kẹo cao su, Sữa chua uống, Dầu gội, Mì ly, Trà đóng chai, Sữa chua uống, Dao cạo râu, Bút bi, Pin sạc, Trà đóng chai, Túi nylon, Bánh mì sandwich, Xà phòng tắm, Chai nước, Túi nylon, Khoai tây chiên",dung,Ho Chi Minh City,"124, Hùng Vương, Thành phố Hồ Chí Minh",15,3.6,convenience,10.6427693,107.2439934
"Cà phê, Mì gói, Khăn giấy, Nước lau sàn, Nước rửa chén, Nước mắm, Gạo, Gạo, Nước ngọt, Nước suối, Thực phẩm đóng hộp, Bánh kẹo, Nước rửa chén, Bánh ăn dặm, Dầu gội, Bột nêm, Kem đánh răng, Nước ngọt",ánh hùng,Ho Chi Minh City,"Quốc lộ 56, Thành phố Hồ Chí Minh",20,4,department_store,10.5919338,107.229811
"Muối, Bánh ăn dặm, Mì gói, Bánh kẹo, Muối, Ngũ cốc, Dầu gội, Nước lau sàn, Mì gói, Trà, Bánh ăn dặm, Bánh kẹo, Khăn giấy, Muối, Tã em bé",thom,Ho Chi Minh City,"172, Hiệp Bình, Phường Hiệp Bình, Thủ Đức, 72309",15,4.4,department_store,10.8444234,106.7303678
"Sữa chua, Giấy vệ sinh, Kem đánh răng, Sữa bột trẻ em, Ngũ cốc, Sữa chua, Nước suối, Cà phê, Nước suối, Nước mắm, Nước xả vải, Nước ngọt, Trà, Đường, Ngũ cốc, Muối",Thu giang,Ho Chi Minh City,"289, Lê Đức Thọ, Phường Gò Vấp, Thuận An, 71400",15,3.8,department_store,10.8410627,106.6779963
"Nước lau sàn, Sữa bột trẻ em, Kem đánh răng, Tã em bé, Sữa bột trẻ em, Sữa chua, Ngũ cốc, Khăn ướt, Bánh ăn dặm, Nước rửa chén, Kem đánh răng, Khăn ướt, Sữa tươi, Cà phê, Trà",Thiên hương,Ho Chi Minh City,"599, Đường Lê Đức Thọ, Phường An Nhơn, Thuận An, 71400",20,3.7,department_store,10.8473286,106.6690386
"Gạo, Sữa tươi, Nước ngọt, Thực phẩm đóng hộp, Nước suối, Nước ngọt, Đường, Bánh kẹo, Kem đánh răng, Muối, Nước mắm, Bánh kẹo, Dầu gội, Tã em bé, Tã em bé",Thế Giới Sữa,Ho Chi Minh City,"681, Đường Lê Đức Thọ, Phường An Nhơn, Thuận An, 71400",20,3.8,department_store,10.8482306,106.6677248
"Kem đánh răng, Trà, Ngũ cốc, Sữa bột, Tã em bé, Mì gói, Sữa bột, Mì gói, Nước suối, Giấy vệ sinh, Bột giặt, Nước suối, Nước ngọt, Tã em bé, Bình sữa, Bột giặt, Dầu ăn, Khăn giấy",Tân phước,Ho Chi Minh City,"32, Lê Văn Khương, Phường Thới An, Thuận An, 71500",20,4.1,department_store,10.8632377,106.6497163
"Dầu gội, Muối, Kem đánh răng, Khăn giấy, Mì gói, Giấy vệ sinh, Sữa bột trẻ em, Mì gói, Khăn ướt, Sữa chua",thanh tú,Ho Chi Minh City,"12 ô1, Phước Hội-Lộc An, Thành phố Hồ Chí Minh",15,4,department_store,10.450664,107.2831786
"Bánh snack, Khẩu trang y tế, Dầu gội, Dây sạc điện thoại, Muỗng nhựa, Dây sạc điện thoại, Khẩu trang y tế, Pin sạc, Dao cạo râu, Bánh mì sandwich",my diện,Ho Chi Minh City,"Võ Thị Sáu, Thành phố Hồ Chí Minh",20,3.9,convenience,10.4488285,107.2821848
"Bánh snack, Nước suối, Sữa chua uống, Lăn khử mùi, Bút bi, Cà phê lon, Bao rác, Kem đánh răng, Trà đóng chai, Mì ly, Sổ tay nhỏ, Sữa chua uống, Khẩu trang y tế",ngọc thành,Ho Chi Minh City,"Võ Thị Sáu, Thành phố Hồ Chí Minh",20,3.8,convenience,10.4495057,107.282889
"Cà phê, Dầu gội, Nước xả vải, Khăn ướt, Sữa bột, Cà phê, Bột giặt, Nước ngọt, Nước suối, Nước rửa chén, Muối, Khăn giấy, Nước suối, Sữa bột",hồng tâm,Ho Chi Minh City,"Võ Thị Sáu, Thành phố Hồ Chí Minh",15,3.9,department_store,10.4437181,107.2858127
"Sữa chua uống, Khoai tây chiên, Chai nước, Thịt hộp, Gối cổ du lịch, Kem đánh răng, Khẩu trang y tế, Lăn khử mùi, Bàn chải đánh răng, Bật lửa, Kẹo, Bao rác, Nước ngọt, Khăn giấy, Khẩu trang y tế, Thịt hộp, Sổ tay nhỏ, Lăn khử mùi, Bật lửa",cô nhu,Ho Chi Minh City,"Võ Thị Sáu, Thành phố Hồ Chí Minh",15,4.2,convenience,10.4427946,107.286501
"Khăn ướt, Sữa hộp, Sữa hộp, Nước ngọt, Bánh quy, Bàn chải đánh răng, Lăn khử mùi, Nước tăng lực, Khoai tây chiên, Kẹo, Chai nước",tạp hoá 79,Ho Chi Minh City,"Đường tỉnh 994, Thành phố Hồ Chí Minh",10,3.9,convenience,10.4369814,107.2898371
"Trà đóng chai, Bánh mì sandwich, Sữa chua uống, Nước tăng lực, Bóng đèn LED mini, Trà đóng chai, Bánh quy, Bánh mì sandwich, Xà phòng tắm, Xà phòng tắm, Cà phê lon, Bóng đèn LED mini, Khăn giấy",thảo hằng,Ho Chi Minh City,"Võ Thị Sáu, Thành phố Hồ Chí Minh",20,4,convenience,10.4365407,107.2906092
"Gối cổ du lịch, Sữa chua uống, Lăn khử mùi, Túi nylon, Sổ tay nhỏ, Bút bi, Khăn giấy, Bánh quy, Pin AA, Dao cạo râu, Lăn khử mùi, Dao cạo râu, Kem đánh răng, Kem đánh răng",châu lê,Ho Chi Minh City,"Võ Thị Sáu, Thành phố Hồ Chí Minh",10,4.1,convenience,10.4329807,107.2925932
"Ô dù gấp, Pin sạc, Dây sạc điện thoại, Sữa chua uống, Chai nước, Bánh quy, Bao rác, Bánh snack, Dao cạo râu, Khoai tây chiên, Gối cổ du lịch, Nước suối, Xà phòng tắm",thu hằng,Ho Chi Minh City,"Võ Thị Sáu, Thành phố Hồ Chí Minh",20,4,convenience,10.4320458,107.2940076
"Nước mắm, Cà phê, Khăn giấy, Nước mắm, Nước xả vải, Giấy vệ sinh, Sữa tắm, Khăn giấy, Tã em bé, Trà, Sữa bột trẻ em, Nước lau sàn, Bánh kẹo, Nước suối, Sữa bột trẻ em, Bình sữa, Sữa tắm, Giấy vệ sinh, Nước xả vải",chị thuận,Ho Chi Minh City,"Võ Thị Sáu, Thành phố Hồ Chí Minh",15,4.2,department_store,10.4240838,107.2912571
"Xà phòng tắm, Nước ngọt, Bàn chải đánh răng, Ô dù gấp, Khẩu trang y tế, Khẩu trang y tế, Trà đóng chai, Sữa chua uống, Trà đóng chai, Cốc nhựa, Nước suối, Ô dù gấp, Nước suối, Bóng đèn LED mini, Lăn khử mùi, Bánh bao mini, Trà đóng chai",xuân thuy,Ho Chi Minh City,"Võ Thị Sáu, Thành phố Hồ Chí Minh",15,4.1,convenience,10.4220434,107.2901458
"Xà phòng tắm, Sữa hộp, Bật lửa, Khăn ướt, Nước tăng lực, Lăn khử mùi, Bánh snack, Găng tay nilon, Găng tay nilon, Bánh bao mini, Bánh snack, Túi nylon, Bật lửa, Nước suối, Nước ngọt, Cốc nhựa, Ô dù gấp",cô thành,Ho Chi Minh City,"Đường Nguyễn Tất Thành, Thành phố Hồ Chí Minh",15,4.5,convenience,10.3855148,107.2406523
"Dao cạo râu, Kẹo, Khẩu trang y tế, Kẹo cao su, Lăn khử mùi, Bật lửa, Trà đóng chai, Cà phê lon, Pin sạc, Cà phê lon, Kẹo cao su, Bút bi, Bánh bao mini, Kẹo cao su",nghia trung,Ho Chi Minh City,"Tỉnh Lộ 44B, Thành phố Hồ Chí Minh",20,3.8,convenience,10.4497993,107.2821449
"Dao cạo râu, Gối cổ du lịch, Pin sạc, Dây sạc điện thoại, Mì gói, Chai nước, Kẹo, Lăn khử mùi, Bút bi, Mì gói, Bánh bao mini, Chai nước, Dầu gội",thành trung,Ho Chi Minh City,"Võ Thị Sáu, Thành phố Hồ Chí Minh",20,3.8,convenience,10.4174733,107.2862734
"Cà phê lon, Bàn chải đánh răng, Bàn chải đánh răng, Sữa chua uống, Sữa chua uống, Khoai tây chiên, Mì gói, Sổ tay nhỏ, Nước suối, Kẹo, Dây sạc điện thoại, Bóng đèn LED mini, Dao cạo râu, Kẹo, Mì ly, Cà phê lon, Sữa hộp, Khẩu trang y tế, Bút bi",thuý hằng,Ho Chi Minh City,"Đường Võ Thị Sáu, Thành phố Hồ Chí Minh",20,4.4,convenience,10.3841598,107.2394012
"Bình sữa, Dầu ăn, Nước xả vải, Thực phẩm đóng hộp, Sữa tắm, Bánh ăn dặm, Sữa bột trẻ em, Nước ngọt, Khăn ướt, Bột nêm, Nước ngọt, Đường, Gạo, Nước rửa chén",thanh kiều,Ho Chi Minh City,"79 ô3, Thạnh Mỹ, Thành phố Hồ Chí Minh",15,3.6,department_store,10.4918382,107.2690841
"Găng tay nilon, Bóng đèn LED mini, Chai nước, Mì ly, Túi nylon, Xà phòng tắm, Nước ngọt, Găng tay nilon, Gối cổ du lịch, Bánh mì sandwich, Gối cổ du lịch, Khăn ướt",cô mai,Ho Chi Minh City,"Võ Thị Sáu, Thành phố Hồ Chí Minh",20,4.1,convenience,10.4250933,107.2920486
